$GPRMC,102531.00,A,2100.2751171,N,10550.6333630,E,1.46,0.00,310123,0.0,E,A*34
$GPGGA,102531.00,2100.2751171,N,10550.6333630,E,3,04,1.0,44.680,M,0.000,M,0.0,*4B
$GPGSA,A,3,03,06,17,30,,,,,,,,,3.8,1.7,3.4,1*25
$GPGSV,1,1,04,03,28,112,00,06,24,215,00,17,45,310,00,30,61,237,00,1*6A
$GPRMC,102532.00,A,2100.2748631,N,10550.6330160,E,5.48,82.28,310123,0.0,E,A*07
$GPGGA,102532.00,2100.2748631,N,10550.6330160,E,3,04,1.0,41.842,M,0.000,M,0.0,*47
$GPGSA,A,3,03,06,17,30,,,,,,,,,3.8,1.7,3.4,1*25
$GPGSV,1,1,04,03,28,112,00,06,24,215,00,17,45,310,00,30,61,237,00,1*6A
$GPRMC,102533.00,A,2100.2742794,N,10550.6332068,E,1.48,82.28,310123,0.0,E,A*0D
$GPGGA,102533.00,2100.2742794,N,10550.6332068,E,3,04,1.0,44.927,M,0.000,M,0.0,*4E
$GPGSA,A,3,03,06,17,30,,,,,,,,,3.8,1.7,3.4,1*25
$GPGSV,1,1,04,03,28,112,00,06,24,215,00,17,45,310,00,30,61,237,00,1*6A
$GPRMC,102534.00,A,2100.2748704,N,10550.6327704,E,3.95,222.74,310123,0.0,E,A*33
$GPGGA,102534.00,2100.2748704,N,10550.6327704,E,3,04,1.0,45.084,M,0.000,M,0.0,*42
$GPGSA,A,3,03,06,17,30,,,,,,,,,3.8,1.7,3.4,1*25
$GPGSV,1,1,04,03,28,112,00,06,24,215,00,17,45,310,00,30,61,237,00,1*6A
$GPRMC,102535.00,A,2100.2751684,N,10550.6322461,E,2.91,36.54,310123,0.0,E,A*06
$GPGGA,102535.00,2100.2751684,N,10550.6322461,E,3,04,1.0,43.070,M,0.000,M,0.0,*4A
$GPGSA,A,3,03,06,17,30,,,,,,,,,3.8,1.7,3.4,1*25
$GPGSV,1,1,04,03,28,111,00,06,24,215,00,17,45,310,00,30,61,237,00,1*69
$GPRMC,102536.00,A,2100.2759696,N,10550.6321401,E,2.32,192.29,310123,0.0,E,A*37
$GPGGA,102536.00,2100.2759696,N,10550.6321401,E,3,04,1.0,41.890,M,0.000,M,0.0,*43
$GPGSA,A,3,03,06,17,30,,,,,,,,,3.8,1.7,3.4,1*25
$GPGSV,1,1,04,03,28,111,00,06,24,215,00,17,45,310,00,30,61,236,00,1*68
$GPRMC,102537.00,A,2100.2765604,N,10550.6322133,E,1.97,92.37,310123,0.0,E,A*07
$GPGGA,102537.00,2100.2765604,N,10550.6322133,E,3,04,1.0,42.059,M,0.000,M,0.0,*4F
$GPGSA,A,3,03,06,17,30,,,,,,,,,3.8,1.7,3.4,1*25
$GPGSV,1,1,04,03,28,111,00,06,24,215,00,17,45,310,00,30,61,236,00,1*68
$GPRMC,102625.00,A,2100.2765065,N,10550.6324021,E,2.51,55.82,310123,0.0,E,A*0E
$GPGGA,102625.00,2100.2765065,N,10550.6324021,E,3,04,1.0,41.031,M,0.000,M,0.0,*47
$GPGSA,A,3,03,06,17,30,,,,,,,,,3.8,1.6,3.4,1*24
$GPGSV,1,1,04,03,28,111,00,06,24,215,00,17,45,311,00,30,61,236,00,1*69
$GPRMC,102626.00,A,2100.2765453,N,10550.6327768,E,5.66,79.57,310123,0.0,E,A*00
$GPGGA,102626.00,2100.2765453,N,10550.6327768,E,3,04,1.0,40.619,M,0.000,M,0.0,*41
$GPGSA,A,3,03,06,17,30,,,,,,,,,3.8,1.6,3.4,1*24
$GPGSV,1,1,04,03,28,111,00,06,24,215,00,17,45,311,00,30,60,236,00,1*68
$GPRMC,102627.00,A,2100.2763179,N,10550.6330267,E,1.83,79.57,310123,0.0,E,A*09
$GPGGA,102627.00,2100.2763179,N,10550.6330267,E,3,04,1.0,40.695,M,0.000,M,0.0,*43
$GPGSA,A,3,03,06,17,30,,,,,,,,,3.8,1.6,3.4,1*24
$GPGSV,1,1,04,03,28,111,00,06,24,215,00,17,45,311,00,30,60,236,00,1*68
$GPRMC,102649.00,A,2100.2762585,N,10550.6331041,E,2.79,200.93,310123,0.0,E,A*32
$GPGGA,102649.00,2100.2762585,N,10550.6331041,E,3,04,1.0,40.096,M,0.000,M,0.0,*4F
$GPGSA,A,3,03,06,17,30,,,,,,,,,3.8,1.6,3.4,1*24
$GPGSV,1,1,04,03,28,111,00,06,24,215,00,17,45,311,00,30,60,235,00,1*6B
$GPRMC,102650.00,A,2100.2761547,N,10550.6331713,E,1.27,200.93,310123,0.0,E,A*3F
$GPGGA,102650.00,2100.2761547,N,10550.6331713,E,3,04,1.0,39.491,M,0.000,M,0.0,*47
$GPGSA,A,3,03,06,17,30,,,,,,,,,3.8,1.6,3.4,1*24
$GPGSV,1,1,04,03,28,111,00,06,24,215,00,17,45,311,00,30,60,235,00,1*6B
$GPRMC,102651.00,A,2100.2762038,N,10550.6333436,E,2.28,42.86,310123,0.0,E,A*0A
$GPGGA,102651.00,2100.2762038,N,10550.6333436,E,3,04,1.0,39.459,M,0.000,M,0.0,*4A
$GPGSA,A,3,03,06,17,30,,,,,,,,,3.8,1.6,3.4,1*24
$GPGSV,1,1,04,03,28,111,00,06,24,215,00,17,45,311,00,30,60,235,00,1*6B
$GPRMC,102652.00,A,2100.2760771,N,10550.6332748,E,3.57,244.37,310123,0.0,E,A*3D
$GPGGA,102652.00,2100.2760771,N,10550.6332748,E,3,04,1.0,39.026,M,0.000,M,0.0,*46
$GPGSA,A,3,03,06,17,30,,,,,,,,,3.8,1.6,3.4,1*24
$GPGSV,1,1,04,03,28,111,00,06,24,215,00,17,45,311,00,30,60,235,00,1*6B
$GPRMC,102653.00,A,2100.2759226,N,10550.6330607,E,5.74,57.42,310123,0.0,E,A*0C
$GPGGA,102653.00,2100.2759226,N,10550.6330607,E,3,04,1.0,38.416,M,0.000,M,0.0,*44
$GPGSA,A,3,03,06,17,30,,,,,,,,,3.8,1.6,3.4,1*24
$GPGSV,1,1,04,03,28,111,00,06,24,215,00,17,45,311,00,30,60,235,00,1*6B
$GPRMC,102654.00,A,2100.2759626,N,10550.6329624,E,2.31,283.04,310123,0.0,E,A*39
$GPGGA,102654.00,2100.2759626,N,10550.6329624,E,3,04,1.0,38.654,M,0.000,M,0.0,*4A
$GPGSA,A,3,03,06,17,30,,,,,,,,,3.8,1.6,3.4,1*24
$GPGSV,1,1,04,03,28,111,00,06,24,215,00,17,45,311,00,30,60,235,00,1*6B
$GPRMC,102655.00,A,2100.2760401,N,10550.6330194,E,3.33,71.63,310123,0.0,E,A*0C
$GPGGA,102655.00,2100.2760401,N,10550.6330194,E,3,04,1.0,38.716,M,0.000,M,0.0,*45
$GPGSA,A,3,03,06,17,30,,,,,,,,,3.8,1.6,3.4,1*24
$GPGSV,1,1,04,03,28,111,00,06,24,215,00,17,45,311,00,30,60,235,00,1*6B
$GPRMC,102656.00,A,2100.2761004,N,10550.6329478,E,1.72,71.63,310123,0.0,E,A*07
$GPGGA,102656.00,2100.2761004,N,10550.6329478,E,3,04,1.0,38.578,M,0.000,M,0.0,*43
$GPGSA,A,3,03,06,17,30,,,,,,,,,3.8,1.6,3.4,1*24
$GPGSV,1,1,04,03,28,111,00,06,24,215,00,17,45,311,00,30,60,235,00,1*6B
$GPRMC,102657.00,A,2100.2760518,N,10550.6329201,E,5.82,146.80,310123,0.0,E,A*34
$GPGGA,102657.00,2100.2760518,N,10550.6329201,E,3,04,1.0,38.515,M,0.000,M,0.0,*48
$GPGSA,A,3,03,06,17,30,,,,,,,,,3.8,1.6,3.4,1*24
$GPGSV,1,1,04,03,28,111,00,06,24,215,00,17,45,311,00,30,60,235,00,1*6B
$GPRMC,102658.00,A,2100.2760811,N,10550.6330173,E,11.65,50.02,310123,0.0,E,A*31
$GPGGA,102658.00,2100.2760811,N,10550.6330173,E,3,04,1.0,38.647,M,0.000,M,0.0,*49
$GPGSA,A,3,03,06,17,30,,,,,,,,,3.8,1.6,3.4,1*24
$GPGSV,1,1,04,03,28,111,00,06,24,215,00,17,45,311,00,30,60,235,00,1*6B
$GPRMC,102659.00,A,2100.2761488,N,10550.6330216,E,5.03,220.56,310123,0.0,E,A*3C
$GPGGA,102659.00,2100.2761488,N,10550.6330216,E,3,04,1.0,38.999,M,0.000,M,0.0,*49
$GPGSA,A,3,03,06,17,30,,,,,,,,,3.8,1.6,3.4,1*24
$GPGSV,1,1,04,03,28,111,00,06,24,215,00,17,45,311,00,30,60,235,00,1*6B
$GPRMC,102700.00,A,2100.2761565,N,10550.6331288,E,1.98,205.75,310123,0.0,E,A*35
$GPGGA,102700.00,2100.2761565,N,10550.6331288,E,3,04,1.0,39.307,M,0.000,M,0.0,*4C
$GPGSA,A,3,03,06,17,30,,,,,,,,,3.8,1.6,3.4,1*24
$GPGSV,1,1,04,03,28,111,00,06,24,215,00,17,45,311,00,30,60,235,00,1*6B
$GPRMC,102701.00,A,2100.2760785,N,10550.6331784,E,1.93,205.75,310123,0.0,E,A*3B
$GPGGA,102701.00,2100.2760785,N,10550.6331784,E,3,04,1.0,39.618,M,0.000,M,0.0,*42
$GPGSA,A,3,03,06,17,30,,,,,,,,,3.8,1.6,3.4,1*24
$GPGSV,1,1,04,03,28,111,00,06,24,215,00,17,45,311,00,30,60,235,00,1*6B
$GPRMC,102702.00,A,2100.2760908,N,10550.6332183,E,3.47,278.11,310123,0.0,E,A*32
$GPGGA,102702.00,2100.2760908,N,10550.6332183,E,3,04,1.0,39.664,M,0.000,M,0.0,*43
$GPGSA,A,3,03,06,17,30,,,,,,,,,3.8,1.6,3.4,1*24
$GPGSV,1,1,04,03,28,111,00,06,24,215,00,17,45,311,00,30,60,235,00,1*6B
$GPRMC,102703.00,A,2100.2760685,N,10550.6333202,E,1.82,278.11,310123,0.0,E,A*39
$GPGGA,102703.00,2100.2760685,N,10550.6333202,E,3,04,1.0,39.567,M,0.000,M,0.0,*43
$GPGSA,A,3,03,06,17,30,,,,,,,,,3.8,1.6,3.4,1*24
$GPGSV,1,1,04,03,28,111,00,06,24,215,00,17,45,311,00,30,60,235,00,1*6B
$GPRMC,102704.00,A,2100.2760386,N,10550.6333512,E,2.30,287.17,310123,0.0,E,A*32
$GPGGA,102704.00,2100.2760386,N,10550.6333512,E,3,04,1.0,39.545,M,0.000,M,0.0,*44
$GPGSA,A,3,03,06,17,30,,,,,,,,,3.8,1.6,3.4,1*24
$GPGSV,1,1,04,03,28,111,00,06,24,215,00,17,45,311,00,30,60,235,00,1*6B
$GPRMC,102705.00,A,2100.2760691,N,10550.6334199,E,2.95,308.44,310123,0.0,E,A*3F
$GPGGA,102705.00,2100.2760691,N,10550.6334199,E,3,04,1.0,39.608,M,0.000,M,0.0,*4C
$GPGSA,A,3,03,06,17,30,,,,,,,,,3.8,1.6,3.4,1*24
$GPGSV,1,1,04,03,28,111,00,06,24,215,00,17,45,311,00,30,60,235,00,1*6B
$GPRMC,102706.00,A,2100.2761065,N,10550.6334847,E,1.64,308.44,310123,0.0,E,A*37
$GPGGA,102706.00,2100.2761065,N,10550.6334847,E,3,04,1.0,39.916,M,0.000,M,0.0,*49
$GPGSA,A,3,03,06,17,30,,,,,,,,,3.8,1.6,3.4,1*24
$GPGSV,1,1,04,03,28,111,00,06,25,215,00,17,45,311,00,30,60,235,00,1*6A
$GPRMC,102707.00,A,2100.2760998,N,10550.6334515,E,5.13,247.06,310123,0.0,E,A*3E
$GPGGA,102707.00,2100.2760998,N,10550.6334515,E,3,04,1.0,39.747,M,0.000,M,0.0,*42
$GPGSA,A,3,03,06,17,30,,,,,,,,,3.8,1.6,3.4,1*24
$GPGSV,1,1,04,03,28,111,00,06,25,215,00,17,45,311,00,30,60,235,00,1*6A
$GPRMC,102708.00,A,2100.2761379,N,10550.6335754,E,3.47,220.80,310123,0.0,E,A*3B
$GPGGA,102708.00,2100.2761379,N,10550.6335754,E,3,04,1.0,39.679,M,0.000,M,0.0,*43
$GPGSA,A,3,03,06,17,30,,,,,,,,,3.8,1.6,3.4,1*24
$GPGSV,1,1,04,03,28,111,00,06,25,215,00,17,45,311,00,30,60,235,00,1*6A
$GPRMC,102709.00,A,2100.2761365,N,10550.6335700,E,2.57,259.05,310123,0.0,E,A*35
$GPGGA,102709.00,2100.2761365,N,10550.6335700,E,3,04,1.0,39.718,M,0.000,M,0.0,*48
$GPGSA,A,3,03,06,17,30,,,,,,,,,3.8,1.6,3.4,1*24
$GPGSV,1,1,04,03,28,111,00,06,25,215,00,17,45,311,00,30,60,235,00,1*6A
$GPRMC,102710.00,A,2100.2761399,N,10550.6335509,E,4.32,64.64,310123,0.0,E,A*0B
$GPGGA,102710.00,2100.2761399,N,10550.6335509,E,3,04,1.0,39.752,M,0.000,M,0.0,*46
$GPGSA,A,3,03,06,17,30,,,,,,,,,3.8,1.6,3.5,1*25
$GPGSV,1,1,04,03,28,111,00,06,25,215,00,17,45,311,00,30,60,235,00,1*6A
$GPRMC,102711.00,A,2100.2761094,N,10550.6334758,E,5.96,178.01,310123,0.0,E,A*33
$GPGGA,102711.00,2100.2761094,N,10550.6334758,E,3,04,1.0,39.829,M,0.000,M,0.0,*4D
$GPGSA,A,3,03,06,17,30,,,,,,,,,3.8,1.6,3.5,1*25
$GPGSV,1,1,04,03,28,111,00,06,25,215,00,17,45,311,00,30,60,235,00,1*6A
$GPRMC,102712.00,A,2100.2761182,N,10550.6335281,E,4.70,287.76,310123,0.0,E,A*3C
$GPGGA,102712.00,2100.2761182,N,10550.6335281,E,3,04,1.0,39.757,M,0.000,M,0.0,*4E
$GPGSA,A,3,03,06,17,30,,,,,,,,,3.8,1.6,3.5,1*25
$GPGSV,1,1,04,03,28,111,00,06,25,215,00,17,45,311,00,30,60,235,00,1*6A
$GPRMC,102713.00,A,2100.2761556,N,10550.6335449,E,1.99,68.80,310123,0.0,E,A*0A
$GPGGA,102713.00,2100.2761556,N,10550.6335449,E,3,04,1.0,39.763,M,0.000,M,0.0,*47
$GPGSA,A,3,03,06,17,30,,,,,,,,,3.8,1.6,3.5,1*25
$GPGSV,1,1,04,03,28,111,00,06,25,215,00,17,45,311,00,30,60,235,00,1*6A
$GPRMC,102714.00,A,2100.2761987,N,10550.6335898,E,1.98,61.17,310123,0.0,E,A*0B
$GPGGA,102714.00,2100.2761987,N,10550.6335898,E,3,04,1.0,40.035,M,0.000,M,0.0,*4A
$GPGSA,A,3,03,06,17,30,,,,,,,,,3.8,1.6,3.5,1*25
$GPGSV,1,1,04,03,28,111,00,06,25,215,00,17,45,311,00,30,60,235,00,1*6A
$GPRMC,102715.00,A,2100.2761748,N,10550.6335572,E,2.53,221.25,310123,0.0,E,A*3D
$GPGGA,102715.00,2100.2761748,N,10550.6335572,E,3,04,1.0,40.128,M,0.000,M,0.0,*42
$GPGSA,A,3,03,06,17,30,,,,,,,,,3.8,1.6,3.5,1*25
$GPGSV,1,1,04,03,28,111,00,06,25,215,00,17,45,312,00,30,60,235,00,1*69
$GPRMC,102716.00,A,2100.2762701,N,10550.6335957,E,2.20,260.05,310123,0.0,E,A*38
$GPGGA,102716.00,2100.2762701,N,10550.6335957,E,3,04,1.0,40.486,M,0.000,M,0.0,*45
$GPGSA,A,3,03,06,17,30,,,,,,,,,3.8,1.6,3.5,1*25
$GPGSV,1,1,04,03,28,111,00,06,25,215,00,17,45,312,00,30,60,235,00,1*69
$GPRMC,102717.00,A,2100.2762970,N,10550.6335705,E,1.36,260.05,310123,0.0,E,A*3C
$GPGGA,102717.00,2100.2762970,N,10550.6335705,E,3,04,1.0,40.493,M,0.000,M,0.0,*41
$GPGSA,A,3,03,06,17,30,,,,,,,,,3.8,1.6,3.5,1*25
$GPGSV,1,1,04,03,28,111,00,06,25,215,00,17,45,312,00,30,60,235,00,1*69
$GPRMC,102718.00,A,2100.2763167,N,10550.6335527,E,1.90,260.05,310123,0.0,E,A*32
$GPGGA,102718.00,2100.2763167,N,10550.6335527,E,3,04,1.0,40.379,M,0.000,M,0.0,*40
$GPGSA,A,3,03,06,17,30,,,,,,,,,3.8,1.6,3.5,1*25
$GPGSV,1,1,04,03,28,111,00,06,25,215,00,17,45,312,00,30,60,235,00,1*69
$GPRMC,102719.00,A,2100.2763501,N,10550.6335494,E,3.89,128.15,310123,0.0,E,A*3A
$GPGGA,102719.00,2100.2763501,N,10550.6335494,E,3,04,1.0,40.121,M,0.000,M,0.0,*43
$GPGSA,A,3,03,06,17,30,,,,,,,,,3.8,1.6,3.5,1*25
$GPGSV,1,1,04,03,28,111,00,06,25,215,00,17,45,312,00,30,60,235,00,1*69
$GPRMC,102720.00,A,2100.2763903,N,10550.6335365,E,4.61,41.28,310123,0.0,E,A*06
$GPGGA,102720.00,2100.2763903,N,10550.6335365,E,3,04,1.0,39.976,M,0.000,M,0.0,*4A
$GPGSA,A,3,03,06,17,30,,,,,,,,,3.8,1.6,3.5,1*25
$GPGSV,1,1,04,03,28,111,00,06,25,215,00,17,45,312,00,30,60,235,00,1*69
$GPRMC,102721.00,A,2100.2764577,N,10550.6336151,E,5.10,137.63,310123,0.0,E,A*31
$GPGGA,102721.00,2100.2764577,N,10550.6336151,E,3,04,1.0,40.028,M,0.000,M,0.0,*49
$GPGSA,A,3,03,06,17,30,,,,,,,,,3.8,1.6,3.5,1*25
$GPGSV,1,1,04,03,28,111,00,06,25,215,00,17,45,312,00,30,60,235,00,1*69
$GPRMC,102722.00,A,2100.2765048,N,10550.6336988,E,4.73,255.69,310123,0.0,E,A*3F
$GPGGA,102722.00,2100.2765048,N,10550.6336988,E,3,04,1.0,39.955,M,0.000,M,0.0,*43
$GPGSA,A,3,03,06,17,30,,,,,,,,,3.8,1.6,3.5,1*25
$GPGSV,1,1,04,03,28,111,00,06,25,215,00,17,45,312,00,30,60,235,00,1*69
$GPRMC,102723.00,A,2100.2765158,N,10550.6337215,E,2.83,246.91,310123,0.0,E,A*3C
$GPGGA,102723.00,2100.2765158,N,10550.6337215,E,3,04,1.0,39.942,M,0.000,M,0.0,*4A
$GPGSA,A,3,03,06,17,30,,,,,,,,,3.8,1.6,3.5,1*25
$GPGSV,1,1,04,03,28,111,00,06,25,215,00,17,45,312,00,30,60,235,00,1*69
$GPRMC,102724.00,A,2100.2765361,N,10550.6337671,E,6.14,96.09,310123,0.0,E,A*01
$GPGGA,102724.00,2100.2765361,N,10550.6337671,E,3,04,1.0,40.129,M,0.000,M,0.0,*48
$GPGSA,A,3,03,06,17,30,,,,,,,,,3.8,1.6,3.5,1*25
$GPGSV,1,1,04,03,28,111,00,06,25,215,00,17,45,312,00,30,60,235,00,1*69
$GPRMC,102725.00,A,2100.2765661,N,10550.6337885,E,1.65,96.09,310123,0.0,E,A*01
$GPGGA,102725.00,2100.2765661,N,10550.6337885,E,3,00,1.0,40.026,M,0.000,M,0.0,*43
$GPGSA,A,3,03,06,17,30,,,,,,,,,3.8,1.6,3.5,1*25
$GPGSV,1,1,04,03,28,111,00,06,25,215,00,17,45,312,00,30,60,235,00,1*69
$GPRMC,102726.00,A,2100.2766093,N,10550.6338169,E,1.38,96.09,310123,0.0,E,A*06
$GPGGA,102726.00,2100.2766093,N,10550.6338169,E,3,04,1.0,40.023,M,0.000,M,0.0,*4D
$GPGSA,A,3,03,06,17,30,,,,,,,,,3.8,1.6,3.5,1*25
$GPGSV,1,1,04,03,28,111,00,06,25,215,00,17,45,312,00,30,60,235,00,1*69
$GPRMC,102727.00,A,2100.2766098,N,10550.6338320,E,2.02,158.87,310123,0.0,E,A*3C
$GPGGA,102727.00,2100.2766098,N,10550.6338320,E,3,04,1.0,39.894,M,0.000,M,0.0,*42
$GPGSA,A,3,03,06,17,30,,,,,,,,,3.8,1.6,3.5,1*25
$GPGSV,1,1,04,03,28,111,00,06,25,215,00,17,45,312,00,30,60,235,00,1*69
$GPRMC,102728.00,A,2100.2766367,N,10550.6338549,E,4.46,71.98,310123,0.0,E,A*0B
$GPGGA,102728.00,2100.2766367,N,10550.6338549,E,3,04,1.0,39.954,M,0.000,M,0.0,*4A
$GPGSA,A,3,03,06,17,30,,,,,,,,,3.8,1.6,3.5,1*25
$GPGSV,1,1,04,03,28,111,00,06,25,215,00,17,45,312,00,30,60,235,00,1*69
$GPRMC,102729.00,A,2100.2766038,N,10550.6338308,E,2.87,243.88,310123,0.0,E,A*39
$GPGGA,102729.00,2100.2766038,N,10550.6338308,E,3,04,1.0,39.855,M,0.000,M,0.0,*41
$GPGSA,A,3,03,06,17,30,,,,,,,,,3.8,1.6,3.5,1*25
$GPGSV,1,1,04,03,28,111,00,06,25,215,00,17,45,312,00,30,60,235,00,1*69
$GPRMC,102730.00,A,2100.2766278,N,10550.6338751,E,6.12,67.56,310123,0.0,E,A*00
$GPGGA,102730.00,2100.2766278,N,10550.6338751,E,3,04,1.0,39.970,M,0.000,M,0.0,*41
$GPGSA,A,3,03,06,17,30,,,,,,,,,3.8,1.6,3.5,1*25
$GPGSV,1,1,04,03,28,111,00,06,25,215,00,17,45,312,00,30,60,235,00,1*69
$GPRMC,102731.00,A,2100.2766438,N,10550.6338367,E,3.06,276.43,310123,0.0,E,A*34
$GPGGA,102731.00,2100.2766438,N,10550.6338367,E,3,04,1.0,39.954,M,0.000,M,0.0,*45
$GPGSA,A,3,03,06,17,30,,,,,,,,,3.8,1.6,3.5,1*25
$GPGSV,1,1,04,03,28,111,00,06,25,215,00,17,45,312,00,30,60,235,00,1*69
$GPRMC,102732.00,A,2100.2766534,N,10550.6338326,E,2.44,198.02,310123,0.0,E,A*3E
$GPGGA,102732.00,2100.2766534,N,10550.6338326,E,3,04,1.0,40.060,M,0.000,M,0.0,*4E
$GPGSA,A,3,03,06,17,30,,,,,,,,,3.8,1.6,3.5,1*25
$GPGSV,1,1,04,03,28,111,00,06,25,215,00,17,45,312,00,30,60,235,00,1*69
$GPRMC,102733.00,A,2100.2766624,N,10550.6338217,E,1.63,198.02,310123,0.0,E,A*38
$GPGGA,102733.00,2100.2766624,N,10550.6338217,E,3,04,1.0,39.976,M,0.000,M,0.0,*4E
$GPGSA,A,3,03,06,17,30,,,,,,,,,3.8,1.6,3.5,1*25
$GPGSV,1,1,04,03,28,111,00,06,25,215,00,17,45,312,00,30,60,235,00,1*69
$GPRMC,102734.00,A,2100.2766449,N,10550.6338142,E,5.50,241.59,310123,0.0,E,A*38
$GPGGA,102734.00,2100.2766449,N,10550.6338142,E,3,04,1.0,39.877,M,0.000,M,0.0,*43
$GPGSA,A,3,03,06,17,30,,,,,,,,,3.8,1.6,3.5,1*25
$GPGSV,1,1,04,03,28,111,00,06,25,215,00,17,45,312,00,30,60,235,00,1*69
$GPRMC,102735.00,A,2100.2766278,N,10550.6337650,E,3.51,257.48,310123,0.0,E,A*36
$GPGGA,102735.00,2100.2766278,N,10550.6337650,E,3,04,1.0,39.851,M,0.000,M,0.0,*49
$GPGSA,A,3,03,06,17,30,,,,,,,,,3.8,1.6,3.5,1*25
$GPGSV,1,1,04,03,28,111,00,06,25,215,00,17,45,312,00,30,60,235,00,1*69
$GPRMC,102736.00,A,2100.2766242,N,10550.6337971,E,3.52,250.51,310123,0.0,E,A*3C
$GPGGA,102736.00,2100.2766242,N,10550.6337971,E,3,04,1.0,40.002,M,0.000,M,0.0,*4F
$GPGSA,A,3,03,06,17,30,,,,,,,,,3.8,1.6,3.5,1*25
$GPGSV,1,1,04,03,28,110,00,06,25,215,00,17,45,312,00,30,60,235,00,1*68
$GPRMC,102737.00,A,2100.2766199,N,10550.6337920,E,1.04,250.51,310123,0.0,E,A*3D
$GPGGA,102737.00,2100.2766199,N,10550.6337920,E,3,04,1.0,39.976,M,0.000,M,0.0,*4B
$GPGSA,A,3,03,06,17,30,,,,,,,,,3.8,1.6,3.5,1*25
$GPGSV,1,1,04,03,28,110,00,06,25,215,00,17,45,312,00,30,60,235,00,1*68
$GPRMC,102738.00,A,2100.2766329,N,10550.6337906,E,2.24,30.89,310123,0.0,E,A*0F
$GPGGA,102738.00,2100.2766329,N,10550.6337906,E,3,04,1.0,39.955,M,0.000,M,0.0,*48
$GPGSA,A,3,03,06,17,30,,,,,,,,,3.8,1.6,3.5,1*25
$GPGSV,1,1,04,03,28,110,00,06,25,215,00,17,45,312,00,30,60,235,00,1*68
$GPRMC,102739.00,A,2100.2766371,N,10550.6337778,E,1.16,30.89,310123,0.0,E,A*06
$GPGGA,102739.00,2100.2766371,N,10550.6337778,E,3,04,1.0,40.062,M,0.000,M,0.0,*40
$GPGSA,A,3,03,06,17,30,,,,,,,,,3.8,1.6,3.5,1*25
$GPGSV,1,1,04,03,28,110,00,06,25,215,00,17,45,312,00,30,60,235,00,1*68
$GPRMC,103519.00,A,2100.2766697,N,10550.6337805,E,2.39,229.07,310123,0.0,E,A*3D
$GPGGA,103519.00,2100.2766697,N,10550.6337805,E,3,03,1.0,40.005,M,0.000,M,0.0,*4F
$GPGSA,A,3,03,17,19,30,,,,,,,,,3.8,2.0,3.3,1*28
$GPGSV,1,1,04,03,30,107,00,17,45,317,00,19,26,280,00,30,58,228,00,1*64
$GPRMC,103520.00,A,2100.2766716,N,10550.6337780,E,1.27,229.07,310123,0.0,E,A*31
$GPGGA,103520.00,2100.2766716,N,10550.6337780,E,3,04,1.0,40.026,M,0.000,M,0.0,*49
$GPGSA,A,3,03,17,19,30,,,,,,,,,3.8,2.0,3.3,1*28
$GPGSV,1,1,04,03,30,107,00,17,45,317,00,19,26,280,00,30,58,228,00,1*64
$GPRMC,103521.00,A,2100.2766668,N,10550.6338186,E,6.46,218.70,310123,0.0,E,A*35
$GPGGA,103521.00,2100.2766668,N,10550.6338186,E,3,04,1.0,40.107,M,0.000,M,0.0,*4D
$GPGSA,A,3,03,17,19,30,,,,,,,,,3.8,2.0,3.3,1*28
$GPGSV,1,1,04,03,30,107,00,17,45,317,00,19,26,280,00,30,58,228,00,1*64
$GPRMC,103522.00,A,2100.2766750,N,10550.6338494,E,2.16,254.29,310123,0.0,E,A*3F
$GPGGA,103522.00,2100.2766750,N,10550.6338494,E,3,00,1.0,40.134,M,0.000,M,0.0,*46
$GPGSA,A,3,03,17,19,30,,,,,,,,,3.8,2.0,3.3,1*28
$GPGSV,1,1,04,03,30,107,00,17,45,317,00,19,26,280,00,30,58,228,00,1*64
$GPRMC,103523.00,A,2100.2766824,N,10550.6338262,E,5.55,235.92,310123,0.0,E,A*3A
$GPGGA,103523.00,2100.2766824,N,10550.6338262,E,3,04,1.0,40.084,M,0.000,M,0.0,*4A
$GPGSA,A,3,03,17,19,30,,,,,,,,,3.8,2.0,3.3,1*28
$GPGSV,1,1,04,03,30,107,00,17,45,317,00,19,26,280,00,30,58,228,00,1*64
$GPRMC,103524.00,A,2100.2766891,N,10550.6338364,E,2.34,218.36,310123,0.0,E,A*35
$GPGGA,103524.00,2100.2766891,N,10550.6338364,E,3,04,1.0,40.058,M,0.000,M,0.0,*45
$GPGSA,A,3,03,17,19,30,,,,,,,,,3.8,2.0,3.3,1*28
$GPGSV,1,1,04,03,30,106,00,17,45,317,00,19,26,280,00,30,58,228,00,1*65
$GPRMC,103525.00,A,2100.2766964,N,10550.6338515,E,3.57,70.16,310123,0.0,E,A*05
$GPGGA,103525.00,2100.2766964,N,10550.6338515,E,3,04,1.0,40.050,M,0.000,M,0.0,*47
$GPGSA,A,3,03,17,19,30,,,,,,,,,3.8,2.0,3.3,1*28
$GPGSV,1,1,04,03,30,106,00,17,45,317,00,19,26,280,00,30,58,228,00,1*65
$GPRMC,103526.00,A,2100.2767060,N,10550.6338507,E,10.96,250.17,310123,0.0,E,A*07
$GPGGA,103526.00,2100.2767060,N,10550.6338507,E,3,04,1.0,39.952,M,0.000,M,0.0,*4E
$GPGSA,A,3,03,17,19,30,,,,,,,,,3.8,2.0,3.3,1*28
$GPGSV,1,1,04,03,30,106,00,17,45,317,00,19,26,280,00,30,58,228,00,1*65
$GPRMC,103527.00,A,2100.2767109,N,10550.6338469,E,4.37,35.97,310123,0.0,E,A*06
$GPGGA,103527.00,2100.2767109,N,10550.6338469,E,3,04,1.0,39.881,M,0.000,M,0.0,*47
$GPGSA,A,3,03,17,19,30,,,,,,,,,3.8,2.0,3.3,1*28
$GPGSV,1,1,04,03,30,106,00,17,45,317,00,19,26,280,00,30,58,228,00,1*65
$GPRMC,103528.00,A,2100.2767111,N,10550.6338428,E,9.60,220.35,310123,0.0,E,A*34
$GPGGA,103528.00,2100.2767111,N,10550.6338428,E,3,04,1.0,39.892,M,0.000,M,0.0,*46
$GPGSA,A,3,03,17,19,30,,,,,,,,,3.8,2.0,3.3,1*28
$GPGSV,1,1,04,03,30,106,00,17,45,317,00,19,26,280,00,30,58,228,00,1*65
$GPRMC,103529.00,A,2100.2767262,N,10550.6338292,E,8.26,45.74,310123,0.0,E,A*02
$GPGGA,103529.00,2100.2767262,N,10550.6338292,E,3,04,1.0,39.829,M,0.000,M,0.0,*47
$GPGSA,A,3,03,17,19,30,,,,,,,,,3.8,2.0,3.3,1*28
$GPGSV,1,1,04,03,30,106,00,17,45,317,00,19,26,280,00,30,58,228,00,1*65
$GPRMC,103530.00,A,2100.2767495,N,10550.6338245,E,7.60,188.39,310123,0.0,E,A*3A
$GPGGA,103530.00,2100.2767495,N,10550.6338245,E,3,04,1.0,39.704,M,0.000,M,0.0,*4B
$GPGSA,A,3,03,17,19,30,,,,,,,,,3.8,2.0,3.3,1*28
$GPGSV,1,1,04,03,30,106,00,17,45,317,00,19,26,281,00,30,58,228,00,1*64
$GPRMC,103531.00,A,2100.2767754,N,10550.6338285,E,4.70,43.22,310123,0.0,E,A*07
$GPGGA,103531.00,2100.2767754,N,10550.6338285,E,3,04,1.0,39.637,M,0.000,M,0.0,*49
$GPGSA,A,3,03,17,19,30,,,,,,,,,3.8,2.0,3.3,1*28
$GPGSV,1,1,04,03,30,106,00,17,45,317,00,19,26,281,00,30,58,228,00,1*64
$GPRMC,103532.00,A,2100.2767902,N,10550.6338368,E,13.45,53.12,310123,0.0,E,A*39
$GPGGA,103532.00,2100.2767902,N,10550.6338368,E,3,04,1.0,39.601,M,0.000,M,0.0,*40
$GPGSA,A,3,03,17,19,30,,,,,,,,,3.8,2.0,3.3,1*28
$GPGSV,1,1,04,03,30,106,00,17,45,317,00,19,26,281,00,30,58,228,00,1*64
$GPRMC,103533.00,A,2100.2767978,N,10550.6338574,E,4.95,64.46,310123,0.0,E,A*00
$GPGGA,103533.00,2100.2767978,N,10550.6338574,E,3,04,1.0,39.630,M,0.000,M,0.0,*45
$GPGSA,A,3,03,17,19,30,,,,,,,,,3.8,2.0,3.3,1*28
$GPGSV,1,1,04,03,30,106,00,17,45,317,00,19,26,281,00,30,58,228,00,1*64
$GPRMC,103534.00,A,2100.2767987,N,10550.6338489,E,5.00,51.28,310123,0.0,E,A*07
$GPGGA,103534.00,2100.2767987,N,10550.6338489,E,3,04,1.0,39.607,M,0.000,M,0.0,*45
$GPGSA,A,3,03,17,19,30,,,,,,,,,3.8,2.0,3.3,1*28
$GPGSV,1,1,04,03,30,106,00,17,45,317,00,19,26,281,00,30,58,228,00,1*64
$GPRMC,103535.00,A,2100.2767959,N,10550.6338482,E,7.76,5.67,310123,0.0,E,A*37
$GPGGA,103535.00,2100.2767959,N,10550.6338482,E,3,04,1.0,39.700,M,0.000,M,0.0,*4A
$GPGSA,A,3,03,17,19,30,,,,,,,,,3.9,2.0,3.3,1*29
$GPGSV,1,1,04,03,30,106,00,17,45,317,00,19,26,281,00,30,58,228,00,1*64
$GPRMC,103536.00,A,2100.2767950,N,10550.6338601,E,7.38,257.55,310123,0.0,E,A*3A
$GPGGA,103536.00,2100.2767950,N,10550.6338601,E,3,04,1.0,39.784,M,0.000,M,0.0,*45
$GPGSA,A,3,03,17,19,30,,,,,,,,,3.9,2.0,3.3,1*29
$GPGSV,1,1,04,03,30,106,00,17,45,317,00,19,26,281,00,30,58,228,00,1*64
$GPRMC,103537.00,A,2100.2768167,N,10550.6338726,E,10.56,58.75,310123,0.0,E,A*3D
$GPGGA,103537.00,2100.2768167,N,10550.6338726,E,3,04,1.0,39.705,M,0.000,M,0.0,*4A
$GPGSA,A,3,03,17,19,30,,,,,,,,,3.9,2.0,3.3,1*29
$GPGSV,1,1,04,03,30,106,00,17,45,317,00,19,26,281,00,30,58,228,00,1*64
$GPRMC,103538.00,A,2100.2768009,N,10550.6339122,E,3.75,77.56,310123,0.0,E,A*07
$GPGGA,103538.00,2100.2768009,N,10550.6339122,E,3,04,1.0,39.895,M,0.000,M,0.0,*49
$GPGSA,A,3,03,17,19,30,,,,,,,,,3.9,2.0,3.3,1*29
$GPGSV,1,1,04,03,30,106,00,17,45,317,00,19,26,281,00,30,58,228,00,1*64
$GPRMC,103539.00,A,2100.2768011,N,10550.6339167,E,1.41,77.56,310123,0.0,E,A*0B
$GPGGA,103539.00,2100.2768011,N,10550.6339167,E,3,04,1.0,39.901,M,0.000,M,0.0,*4C
$GPGSA,A,3,03,17,19,30,,,,,,,,,3.9,2.0,3.3,1*29
$GPGSV,1,1,04,03,30,106,00,17,45,317,00,19,26,281,00,30,58,228,00,1*64
$GPRMC,103540.00,A,2100.2767998,N,10550.6339364,E,2.83,106.80,310123,0.0,E,A*32
$GPGGA,103540.00,2100.2767998,N,10550.6339364,E,3,04,1.0,39.931,M,0.000,M,0.0,*47
$GPGSA,A,3,03,17,19,30,,,,,,,,,3.9,2.0,3.3,1*29
$GPGSV,1,1,04,03,30,106,00,17,45,317,00,19,26,281,00,30,58,228,00,1*64
$GPRMC,103541.00,A,2100.2768015,N,10550.6339550,E,1.92,106.80,310123,0.0,E,A*32
$GPGGA,103541.00,2100.2768015,N,10550.6339550,E,3,04,1.0,39.993,M,0.000,M,0.0,*4C
$GPGSA,A,3,03,17,19,30,,,,,,,,,3.9,2.0,3.3,1*29
$GPGSV,1,1,04,03,30,106,00,17,45,317,00,19,26,281,00,30,58,228,00,1*64
$GPRMC,103542.00,A,2100.2768086,N,10550.6339666,E,8.25,249.78,310123,0.0,E,A*37
$GPGGA,103542.00,2100.2768086,N,10550.6339666,E,3,04,1.0,39.983,M,0.000,M,0.0,*42
$GPGSA,A,3,03,17,19,30,,,,,,,,,3.9,2.0,3.3,1*29
$GPGSV,1,1,04,03,30,106,00,17,45,317,00,19,26,281,00,30,58,228,00,1*64
$GPRMC,103543.00,A,2100.2768159,N,10550.6339457,E,1.73,249.78,310123,0.0,E,A*3F
$GPGGA,103543.00,2100.2768159,N,10550.6339457,E,3,04,1.0,39.883,M,0.000,M,0.0,*41
$GPGSA,A,3,03,17,19,30,,,,,,,,,3.9,2.0,3.3,1*29
$GPGSV,1,1,04,03,30,106,00,17,45,317,00,19,26,281,00,30,58,228,00,1*64
$GPRMC,103544.00,A,2100.2768177,N,10550.6339423,E,3.16,223.75,310123,0.0,E,A*37
$GPGGA,103544.00,2100.2768177,N,10550.6339423,E,3,04,1.0,39.861,M,0.000,M,0.0,*45
$GPGSA,A,3,03,17,19,30,,,,,,,,,3.9,2.0,3.3,1*29
$GPGSV,1,1,04,03,30,106,00,17,45,317,00,19,26,281,00,30,58,228,00,1*64
$GPRMC,103545.00,A,2100.2768071,N,10550.6339581,E,3.02,227.77,310123,0.0,E,A*3B
$GPGGA,103545.00,2100.2768071,N,10550.6339581,E,3,04,1.0,39.966,M,0.000,M,0.0,*4C
$GPGSA,A,3,03,17,19,30,,,,,,,,,3.9,2.0,3.3,1*29
$GPGSV,1,1,04,03,30,106,00,17,45,317,00,19,26,281,00,30,58,228,00,1*64
$GPRMC,103546.00,A,2100.2768088,N,10550.6339793,E,6.32,238.85,310123,0.0,E,A*3A
$GPGGA,103546.00,2100.2768088,N,10550.6339793,E,3,00,1.0,39.992,M,0.000,M,0.0,*47
$GPGSA,A,3,03,17,19,30,,,,,,,,,3.9,2.0,3.3,1*29
$GPGSV,1,1,04,03,30,106,00,17,45,317,00,19,26,281,00,30,58,228,00,1*64
$GPRMC,103547.00,A,2100.2768101,N,10550.6339905,E,13.56,241.36,310123,0.0,E,A*0A
$GPGGA,103547.00,2100.2768101,N,10550.6339905,E,3,04,1.0,39.990,M,0.000,M,0.0,*41
$GPGSA,A,3,03,17,19,30,,,,,,,,,3.9,2.0,3.3,1*29
$GPGSV,1,1,04,03,30,106,00,17,45,317,00,19,26,281,00,30,58,228,00,1*64
$GPRMC,103548.00,A,2100.2768123,N,10550.6339823,E,4.85,242.15,310123,0.0,E,A*3A
$GPGGA,103548.00,2100.2768123,N,10550.6339823,E,3,04,1.0,39.913,M,0.000,M,0.0,*40
$GPGSA,A,3,03,17,19,30,,,,,,,,,3.9,2.0,3.3,1*29
$GPGSV,1,1,04,03,30,106,00,17,45,317,00,19,26,281,00,30,58,228,00,1*64
$GPRMC,103549.00,A,2100.2768163,N,10550.6339697,E,1.34,242.15,310123,0.0,E,A*31
$GPGGA,103549.00,2100.2768163,N,10550.6339697,E,3,04,1.0,39.869,M,0.000,M,0.0,*48
$GPGSA,A,3,03,17,19,30,,,,,,,,,3.9,2.0,3.3,1*29
$GPGSV,1,1,04,03,30,106,00,17,45,317,00,19,26,281,00,30,58,228,00,1*64
$GPRMC,103550.00,A,2100.2768219,N,10550.6339732,E,3.57,53.25,310123,0.0,E,A*0F
$GPGGA,103550.00,2100.2768219,N,10550.6339732,E,3,04,1.0,39.877,M,0.000,M,0.0,*4F
$GPGSA,A,3,03,17,19,30,,,,,,,,,3.9,2.0,3.3,1*29
$GPGSV,1,1,04,03,30,106,00,17,45,317,00,19,26,281,00,30,58,228,00,1*64
$GPRMC,103551.00,A,2100.2768280,N,10550.6339701,E,9.50,58.74,310123,0.0,E,A*0C
$GPGGA,103551.00,2100.2768280,N,10550.6339701,E,3,04,1.0,39.805,M,0.000,M,0.0,*4B
$GPGSA,A,3,03,17,19,30,,,,,,,,,3.9,2.0,3.3,1*29
$GPGSV,1,1,04,03,30,106,00,17,45,317,00,19,26,281,00,30,58,228,00,1*64
$GPRMC,103552.00,A,2100.2768323,N,10550.6339741,E,3.16,74.04,310123,0.0,E,A*02
$GPGGA,103552.00,2100.2768323,N,10550.6339741,E,3,04,1.0,39.748,M,0.000,M,0.0,*42
$GPGSA,A,3,03,17,19,30,,,,,,,,,3.9,2.0,3.3,1*29
$GPGSV,1,1,04,03,30,106,00,17,45,317,00,19,27,281,00,30,58,228,00,1*65
$GPRMC,103553.00,A,2100.2768312,N,10550.6339867,E,4.73,218.93,310123,0.0,E,A*38
$GPGGA,103553.00,2100.2768312,N,10550.6339867,E,3,04,1.0,39.769,M,0.000,M,0.0,*49
$GPGSA,A,3,03,17,19,30,,,,,,,,,3.9,2.0,3.3,1*29
$GPGSV,1,1,04,03,30,106,00,17,45,317,00,19,27,281,00,30,58,228,00,1*65
$GPRMC,103619.00,A,2100.2768272,N,10550.6340112,E,1.98,207.99,310123,0.0,E,A*33
$GPGGA,103619.00,2100.2768272,N,10550.6340112,E,3,04,1.0,39.840,M,0.000,M,0.0,*42
$GPGSA,A,3,03,17,19,30,,,,,,,,,3.9,2.0,3.3,1*29
$GPGSV,1,1,04,03,30,106,00,17,45,317,00,19,27,281,00,30,58,228,00,1*65
$GPRMC,103620.00,A,2100.2768231,N,10550.6340298,E,3.20,11.37,310123,0.0,E,A*0F
$GPGGA,103620.00,2100.2768231,N,10550.6340298,E,3,04,1.0,39.899,M,0.000,M,0.0,*4A
$GPGSA,A,3,03,17,19,30,,,,,,,,,3.9,2.0,3.3,1*29
$GPGSV,1,1,04,03,30,106,00,17,45,317,00,19,27,281,00,30,58,228,00,1*65
$GPRMC,103621.00,A,2100.2768134,N,10550.6340381,E,9.36,238.64,310123,0.0,E,A*33
$GPGGA,103621.00,2100.2768134,N,10550.6340381,E,3,04,1.0,39.874,M,0.000,M,0.0,*47
$GPGSA,A,3,03,17,19,30,,,,,,,,,3.9,2.0,3.3,1*29
$GPGSV,1,1,04,03,30,106,00,17,45,317,00,19,27,281,00,30,58,228,00,1*65
$GPRMC,103622.00,A,2100.2768048,N,10550.6340668,E,4.36,51.97,310123,0.0,E,A*04
$GPGGA,103622.00,2100.2768048,N,10550.6340668,E,3,04,1.0,39.941,M,0.000,M,0.0,*4B
$GPGSA,A,3,03,17,19,30,,,,,,,,,3.9,2.0,3.3,1*29
$GPGSV,1,1,04,03,30,106,00,17,45,317,00,19,27,281,00,30,58,228,00,1*65
$GPRMC,103623.00,A,2100.2768044,N,10550.6340687,E,3.67,53.75,310123,0.0,E,A*05
$GPGGA,103623.00,2100.2768044,N,10550.6340687,E,3,04,1.0,39.962,M,0.000,M,0.0,*46
$GPGSA,A,3,03,17,19,30,,,,,,,,,3.9,2.0,3.3,1*29
$GPGSV,1,1,04,03,30,106,00,17,45,317,00,19,27,281,00,30,58,227,00,1*6A
$GPRMC,103624.00,A,2100.2768114,N,10550.6340696,E,3.35,306.03,310123,0.0,E,A*33
$GPGGA,103624.00,2100.2768114,N,10550.6340696,E,3,04,1.0,39.933,M,0.000,M,0.0,*41
$GPGSA,A,3,03,17,19,30,,,,,,,,,3.9,2.0,3.3,1*29
$GPGSV,1,1,04,03,30,106,00,17,45,317,00,19,27,281,00,30,58,227,00,1*6A
$GPRMC,103625.00,A,2100.2768161,N,10550.6340782,E,1.19,306.03,310123,0.0,E,A*38
$GPGGA,103625.00,2100.2768161,N,10550.6340782,E,3,04,1.0,39.895,M,0.000,M,0.0,*4B
$GPGSA,A,3,03,17,19,30,,,,,,,,,3.9,2.0,3.4,1*2E
$GPGSV,1,1,04,03,30,106,00,17,45,317,00,19,27,281,00,30,57,227,00,1*65
$GPRMC,103626.00,A,2100.2768125,N,10550.6341111,E,5.97,80.91,310123,0.0,E,A*02
$GPGGA,103626.00,2100.2768125,N,10550.6341111,E,3,04,1.0,39.909,M,0.000,M,0.0,*41
$GPGSA,A,3,03,17,19,30,,,,,,,,,3.9,2.0,3.4,1*2E
$GPGSV,1,1,04,03,30,106,00,17,45,317,00,19,27,281,00,30,57,227,00,1*65
$GPRMC,103627.00,A,2100.2768195,N,10550.6341257,E,5.64,12.49,310123,0.0,E,A*0B
$GPGGA,103627.00,2100.2768195,N,10550.6341257,E,3,04,1.0,39.943,M,0.000,M,0.0,*44
$GPGSA,A,3,03,17,19,30,,,,,,,,,3.9,2.0,3.4,1*2E
$GPGSV,1,1,04,03,30,106,00,17,45,317,00,19,27,281,00,30,57,227,00,1*65
$GPRMC,103628.00,A,2100.2768251,N,10550.6341547,E,1.77,12.49,310123,0.0,E,A*0F
$GPGGA,103628.00,2100.2768251,N,10550.6341547,E,3,00,1.0,40.040,M,0.000,M,0.0,*46
$GPGSA,A,3,03,17,19,30,,,,,,,,,3.9,2.0,3.4,1*2E
$GPGSV,1,1,04,03,30,106,00,17,45,317,00,19,27,281,00,30,57,227,00,1*65
$GPRMC,103629.00,A,2100.2768173,N,10550.6341827,E,2.49,154.44,310123,0.0,E,A*36
$GPGGA,103629.00,2100.2768173,N,10550.6341827,E,3,04,1.0,40.149,M,0.000,M,0.0,*43
$GPGSA,A,3,03,17,19,30,,,,,,,,,3.9,2.0,3.4,1*2E
$GPGSV,1,1,04,03,30,106,00,17,45,317,00,19,27,281,00,30,57,227,00,1*65
$GPRMC,103630.00,A,2100.2768247,N,10550.6341999,E,2.42,261.32,310123,0.0,E,A*31
$GPGGA,103630.00,2100.2768247,N,10550.6341999,E,3,04,1.0,40.143,M,0.000,M,0.0,*41
$GPGSA,A,3,03,17,19,30,,,,,,,,,3.9,2.0,3.4,1*2E
$GPGSV,1,1,04,03,30,106,00,17,45,317,00,19,27,281,00,30,57,227,00,1*65
$GPRMC,103631.00,A,2100.2768254,N,10550.6342103,E,2.38,213.45,310123,0.0,E,A*32
$GPGGA,103631.00,2100.2768254,N,10550.6342103,E,3,04,1.0,40.103,M,0.000,M,0.0,*4E
$GPGSA,A,3,03,17,19,30,,,,,,,,,3.9,2.0,3.4,1*2E
$GPGSV,1,1,04,03,30,106,00,17,45,317,00,19,27,281,00,30,57,227,00,1*65
$GPRMC,103632.00,A,2100.2768384,N,10550.6342054,E,3.74,250.44,310123,0.0,E,A*31
$GPGGA,103632.00,2100.2768384,N,10550.6342054,E,3,04,1.0,40.005,M,0.000,M,0.0,*45
$GPGSA,A,3,03,17,19,30,,,,,,,,,3.9,2.0,3.4,1*2E
$GPGSV,1,1,04,03,30,106,00,17,45,317,00,19,27,281,00,30,57,227,00,1*65
$GPRMC,103633.00,A,2100.2768561,N,10550.6341972,E,5.77,222.08,310123,0.0,E,A*3B
$GPGGA,103633.00,2100.2768561,N,10550.6341972,E,3,04,1.0,39.963,M,0.000,M,0.0,*40
$GPGSA,A,3,03,17,19,30,,,,,,,,,3.9,2.0,3.4,1*2E
$GPGSV,1,1,04,03,30,106,00,17,45,317,00,19,27,281,00,30,57,227,00,1*65
$GPRMC,103634.00,A,2100.2768662,N,10550.6341978,E,4.55,76.41,310123,0.0,E,A*09
$GPGGA,103634.00,2100.2768662,N,10550.6341978,E,3,04,1.0,39.896,M,0.000,M,0.0,*46
$GPGSA,A,3,03,17,19,30,,,,,,,,,3.9,2.0,3.4,1*2E
$GPGSV,1,1,04,03,30,106,00,17,45,317,00,19,27,281,00,30,57,227,00,1*65
$GPRMC,103635.00,A,2100.2768800,N,10550.6341934,E,2.99,310.28,310123,0.0,E,A*30
$GPGGA,103635.00,2100.2768800,N,10550.6341934,E,3,04,1.0,39.852,M,0.000,M,0.0,*4D
$GPGSA,A,3,03,17,19,30,,,,,,,,,3.9,2.0,3.4,1*2E
$GPGSV,1,1,04,03,30,106,00,17,45,317,00,19,27,281,00,30,57,227,00,1*65
$GPRMC,103636.00,A,2100.2768902,N,10550.6341996,E,10.02,330.58,310123,0.0,E,A*0C
$GPGGA,103636.00,2100.2768902,N,10550.6341996,E,3,04,1.0,39.863,M,0.000,M,0.0,*47
$GPGSA,A,3,03,17,19,30,,,,,,,,,3.9,2.0,3.4,1*2E
$GPGSV,1,1,04,03,30,106,00,17,45,317,00,19,27,281,00,30,57,227,00,1*65
$GPRMC,103637.00,A,2100.2768918,N,10550.6341990,E,3.67,234.18,310123,0.0,E,A*30
$GPGGA,103637.00,2100.2768918,N,10550.6341990,E,3,04,1.0,39.875,M,0.000,M,0.0,*4C
$GPGSA,A,3,03,17,19,30,,,,,,,,,3.9,2.0,3.4,1*2E
$GPGSV,1,1,04,03,30,106,00,17,45,317,00,19,27,281,00,30,57,227,00,1*65
$GPRMC,103638.00,A,2100.2769091,N,10550.6342041,E,10.41,211.84,310123,0.0,E,A*04
$GPGGA,103638.00,2100.2769091,N,10550.6342041,E,3,04,1.0,39.904,M,0.000,M,0.0,*4B
$GPGSA,A,3,03,17,19,30,,,,,,,,,3.9,2.0,3.4,1*2E
$GPGSV,1,1,04,03,30,106,00,17,45,317,00,19,27,281,00,30,57,227,00,1*65
$GPRMC,103639.00,A,2100.2769214,N,10550.6341944,E,4.51,275.40,310123,0.0,E,A*3B
$GPGGA,103639.00,2100.2769214,N,10550.6341944,E,3,04,1.0,39.866,M,0.000,M,0.0,*4F
$GPGSA,A,3,03,17,19,30,,,,,,,,,3.9,2.0,3.4,1*2E
$GPGSV,1,1,04,03,30,106,00,17,45,318,00,19,27,281,00,30,57,227,00,1*6A
$GPRMC,103640.00,A,2100.2769247,N,10550.6341903,E,4.75,239.09,310123,0.0,E,A*33
$GPGGA,103640.00,2100.2769247,N,10550.6341903,E,3,04,1.0,39.891,M,0.000,M,0.0,*4C
$GPGSA,A,3,03,17,19,30,,,,,,,,,3.9,2.0,3.4,1*2E
$GPGSV,1,1,04,03,30,106,00,17,45,318,00,19,27,281,00,30,57,227,00,1*6A
$GPRMC,103641.00,A,2100.2769287,N,10550.6341992,E,3.10,44.43,310123,0.0,E,A*04
$GPGGA,103641.00,2100.2769287,N,10550.6341992,E,3,04,1.0,39.925,M,0.000,M,0.0,*47
$GPGSA,A,3,03,17,19,30,,,,,,,,,3.9,1.9,3.4,1*24
$GPGSV,1,1,04,03,30,106,00,17,45,318,00,19,27,281,00,30,57,227,00,1*6A
$GPRMC,103642.00,A,2100.2769382,N,10550.6341930,E,2.02,243.99,310123,0.0,E,A*3B
$GPGGA,103642.00,2100.2769382,N,10550.6341930,E,3,00,1.0,39.917,M,0.000,M,0.0,*4D
$GPGSA,A,3,03,17,19,30,,,,,,,,,3.9,1.9,3.4,1*24
$GPGSV,1,1,04,03,30,106,00,17,45,318,00,19,27,281,00,30,57,227,00,1*6A
$GPRMC,103643.00,A,2100.2769408,N,10550.6341934,E,1.68,243.99,310123,0.0,E,A*34
$GPGGA,103643.00,2100.2769408,N,10550.6341934,E,3,00,1.0,39.865,M,0.000,M,0.0,*49
$GPGSA,A,3,03,17,19,30,,,,,,,,,3.9,1.9,3.4,1*24
$GPGSV,1,1,04,03,30,106,00,17,45,318,00,19,27,281,00,30,57,227,00,1*6A
$GPRMC,103644.00,A,2100.2769533,N,10550.6341943,E,3.04,282.33,310123,0.0,E,A*3F
$GPGGA,103644.00,2100.2769533,N,10550.6341943,E,3,00,1.0,39.814,M,0.000,M,0.0,*41
$GPGSA,A,3,03,17,19,30,,,,,,,,,3.9,1.9,3.4,1*24
$GPGSV,1,1,04,03,30,106,00,17,45,318,00,19,27,281,00,30,57,227,00,1*6A
$GPRMC,103645.00,A,2100.2769617,N,10550.6341916,E,2.66,207.38,310123,0.0,E,A*38
$GPGGA,103645.00,2100.2769617,N,10550.6341916,E,3,04,1.0,39.787,M,0.000,M,0.0,*44
$GPGSA,A,3,03,17,19,30,,,,,,,,,3.9,1.9,3.4,1*24
$GPGSV,1,1,04,03,30,106,00,17,45,318,00,19,27,281,00,30,57,227,00,1*6A
$GPRMC,103646.00,A,2100.2769790,N,10550.6341906,E,6.54,253.06,310123,0.0,E,A*3D
$GPGGA,103646.00,2100.2769790,N,10550.6341906,E,3,04,1.0,39.747,M,0.000,M,0.0,*44
$GPGSA,A,3,03,17,19,30,,,,,,,,,3.9,1.9,3.4,1*24
$GPGSV,1,1,04,03,30,106,00,17,45,318,00,19,27,281,00,30,57,227,00,1*6A
$GPRMC,103647.00,A,2100.2769883,N,10550.6341796,E,6.91,330.35,310123,0.0,E,A*3B
$GPGGA,103647.00,2100.2769883,N,10550.6341796,E,3,04,1.0,39.742,M,0.000,M,0.0,*4A
$GPGSA,A,3,03,17,19,30,,,,,,,,,3.9,1.9,3.4,1*24
$GPGSV,1,1,04,03,30,106,00,17,45,318,00,19,27,281,00,30,57,227,00,1*6A
$GPRMC,103648.00,A,2100.2769926,N,10550.6341848,E,3.64,46.71,310123,0.0,E,A*0B
$GPGGA,103648.00,2100.2769926,N,10550.6341848,E,3,04,1.0,39.756,M,0.000,M,0.0,*42
$GPGSA,A,3,03,17,19,30,,,,,,,,,3.9,1.9,3.4,1*24
$GPGSV,1,1,04,03,30,106,00,17,45,318,00,19,27,281,00,30,57,227,00,1*6A
$GPRMC,103649.00,A,2100.2770030,N,10550.6341944,E,2.60,330.66,310123,0.0,E,A*30
$GPGGA,103649.00,2100.2770030,N,10550.6341944,E,3,04,1.0,39.791,M,0.000,M,0.0,*43
$GPGSA,A,3,03,17,19,30,,,,,,,,,3.9,1.9,3.4,1*24
$GPGSV,1,1,04,03,30,106,00,17,45,318,00,19,27,281,00,30,57,227,00,1*6A
$GPRMC,103650.00,A,2100.2770015,N,10550.6341966,E,2.81,283.03,310123,0.0,E,A*3A
$GPGGA,103650.00,2100.2770015,N,10550.6341966,E,3,04,1.0,39.843,M,0.000,M,0.0,*4C
$GPGSA,A,3,03,17,19,30,,,,,,,,,3.9,1.9,3.4,1*24
$GPGSV,1,1,04,03,30,106,00,17,45,318,00,19,27,281,00,30,57,227,00,1*6A
$GPRMC,103651.00,A,2100.2770080,N,10550.6341992,E,10.31,220.10,310123,0.0,E,A*0F
$GPGGA,103651.00,2100.2770080,N,10550.6341992,E,3,04,1.0,39.861,M,0.000,M,0.0,*4A
$GPGSA,A,3,03,17,19,30,,,,,,,,,3.9,1.9,3.4,1*24
$GPGSV,1,1,04,03,30,106,00,17,45,318,00,19,27,281,00,30,57,227,00,1*6A
$GPRMC,103652.00,A,2100.2770201,N,10550.6341980,E,10.65,225.18,310123,0.0,E,A*08
$GPGGA,103652.00,2100.2770201,N,10550.6341980,E,3,04,1.0,39.813,M,0.000,M,0.0,*44
$GPGSA,A,3,03,17,19,30,,,,,,,,,3.9,1.9,3.4,1*24
$GPGSV,1,1,04,03,30,106,00,17,45,318,00,19,27,281,00,30,57,227,00,1*6A
$GPRMC,103653.00,A,2100.2770352,N,10550.6341922,E,14.19,243.39,310123,0.0,E,A*0A
$GPGGA,103653.00,2100.2770352,N,10550.6341922,E,3,04,1.0,39.762,M,0.000,M,0.0,*43
$GPGSA,A,3,03,17,19,30,,,,,,,,,3.9,1.9,3.4,1*24
$GPGSV,1,1,04,03,30,106,00,17,45,318,00,19,27,281,00,30,57,227,00,1*6A
$GPRMC,103654.00,A,2100.2770378,N,10550.6341959,E,10.22,216.06,310123,0.0,E,A*09
$GPGGA,103654.00,2100.2770378,N,10550.6341959,E,3,04,1.0,39.757,M,0.000,M,0.0,*46
$GPGSA,A,3,03,17,19,30,,,,,,,,,3.9,1.9,3.4,1*24
$GPGSV,1,1,04,03,30,106,00,17,45,318,00,19,27,281,00,30,57,227,00,1*6A
$GPRMC,103655.00,A,2100.2770455,N,10550.6342026,E,8.98,232.31,310123,0.0,E,A*38
$GPGGA,103655.00,2100.2770455,N,10550.6342026,E,3,04,1.0,39.748,M,0.000,M,0.0,*43
$GPGSA,A,3,03,17,19,30,,,,,,,,,3.9,1.9,3.4,1*24
$GPGSV,1,1,04,03,30,106,00,17,45,318,00,19,27,281,00,30,57,227,00,1*6A
$GPRMC,103656.00,A,2100.2770499,N,10550.6342182,E,3.52,287.59,310123,0.0,E,A*39
$GPGGA,103656.00,2100.2770499,N,10550.6342182,E,3,00,1.0,39.754,M,0.000,M,0.0,*46
$GPGSA,A,3,03,17,19,30,,,,,,,,,3.9,1.9,3.4,1*24
$GPGSV,1,1,04,03,30,106,00,17,45,318,00,19,27,281,00,30,57,227,00,1*6A
$GPRMC,103657.00,A,2100.2770490,N,10550.6342094,E,5.06,17.44,310123,0.0,E,A*07
$GPGGA,103657.00,2100.2770490,N,10550.6342094,E,3,04,1.0,39.710,M,0.000,M,0.0,*4C
$GPGSA,A,3,03,17,19,30,,,,,,,,,3.9,1.9,3.4,1*24
$GPGSV,1,1,04,03,30,106,00,17,45,318,00,19,27,281,00,30,57,227,00,1*6A
$GPRMC,103658.00,A,2100.2770557,N,10550.6341976,E,1.75,17.44,310123,0.0,E,A*04
$GPGGA,103658.00,2100.2770557,N,10550.6341976,E,3,04,1.0,39.641,M,0.000,M,0.0,*4A
$GPGSA,A,3,03,17,19,30,,,,,,,,,3.9,1.9,3.4,1*24
$GPGSV,1,1,04,03,30,106,00,17,45,318,00,19,27,281,00,30,57,227,00,1*6A
$GPRMC,103659.00,A,2100.2770602,N,10550.6342057,E,5.72,237.18,310123,0.0,E,A*35
$GPGGA,103659.00,2100.2770602,N,10550.6342057,E,3,04,1.0,39.683,M,0.000,M,0.0,*4F
$GPGSA,A,3,03,17,19,30,,,,,,,,,3.9,1.9,3.4,1*24
$GPGSV,1,1,04,03,30,106,00,17,45,318,00,19,27,281,00,30,57,227,00,1*6A
$GPRMC,103700.00,A,2100.2770614,N,10550.6342132,E,1.53,237.18,310123,0.0,E,A*3A
$GPGGA,103700.00,2100.2770614,N,10550.6342132,E,3,00,1.0,39.671,M,0.000,M,0.0,*4E
$GPGSA,A,3,03,17,19,30,,,,,,,,,3.9,1.9,3.4,1*24
$GPGSV,1,1,04,03,30,106,00,17,45,318,00,19,27,281,00,30,57,227,00,1*6A
$GPRMC,103701.00,A,2100.2770633,N,10550.6342118,E,6.35,298.83,310123,0.0,E,A*36
$GPGGA,103701.00,2100.2770633,N,10550.6342118,E,3,00,1.0,39.638,M,0.000,M,0.0,*4F
$GPGSA,A,3,03,17,19,30,,,,,,,,,3.9,1.9,3.4,1*24
$GPGSV,1,1,04,03,30,106,00,17,45,318,00,19,27,281,00,30,57,227,00,1*6A
$GPRMC,103702.00,A,2100.2770636,N,10550.6342264,E,1.69,298.83,310123,0.0,E,A*36
$GPGGA,103702.00,2100.2770636,N,10550.6342264,E,3,04,1.0,39.652,M,0.000,M,0.0,*49
$GPGSA,A,3,03,17,19,30,,,,,,,,,3.9,1.9,3.4,1*24
$GPGSV,1,1,04,03,30,106,00,17,45,318,00,19,27,281,00,30,57,227,00,1*6A
$GPRMC,103703.00,A,2100.2770688,N,10550.6342300,E,1.85,298.83,310123,0.0,E,A*33
$GPGGA,103703.00,2100.2770688,N,10550.6342300,E,3,04,1.0,39.673,M,0.000,M,0.0,*4D
$GPGSA,A,3,03,17,19,30,,,,,,,,,3.9,1.9,3.4,1*24
$GPGSV,1,1,04,03,30,106,00,17,45,318,00,19,27,281,00,30,57,227,00,1*6A
$GPRMC,103704.00,A,2100.2770677,N,10550.6342411,E,2.34,177.16,310123,0.0,E,A*34
$GPGGA,103704.00,2100.2770677,N,10550.6342411,E,3,04,1.0,39.691,M,0.000,M,0.0,*41
$GPGSA,A,3,03,17,19,30,,,,,,,,,3.9,1.9,3.4,1*24
$GPGSV,1,1,04,03,30,106,00,17,45,318,00,19,27,281,00,30,57,227,00,1*6A
$GPRMC,103705.00,A,2100.2770698,N,10550.6342381,E,5.43,102.07,310123,0.0,E,A*3F
$GPGGA,103705.00,2100.2770698,N,10550.6342381,E,3,04,1.0,39.629,M,0.000,M,0.0,*4C
$GPGSA,A,3,03,17,19,30,,,,,,,,,3.9,1.9,3.4,1*24
$GPGSV,1,1,04,03,30,106,00,17,45,318,00,19,27,281,00,30,57,227,00,1*6A
$GPRMC,103706.00,A,2100.2770673,N,10550.6342366,E,0.64,102.07,310123,0.0,E,A*30
$GPGGA,103706.00,2100.2770673,N,10550.6342366,E,3,04,1.0,39.590,M,0.000,M,0.0,*42
$GPGSA,A,3,03,17,19,30,,,,,,,,,3.9,1.9,3.4,1*24
$GPGSV,1,1,04,03,30,106,00,17,45,318,00,19,27,281,00,30,57,227,00,1*6A
$GPRMC,103707.00,A,2100.2770821,N,10550.6342349,E,1.10,102.07,310123,0.0,E,A*37
$GPGGA,103707.00,2100.2770821,N,10550.6342349,E,3,04,1.0,39.530,M,0.000,M,0.0,*4D
$GPGSA,A,3,03,17,19,30,,,,,,,,,3.9,1.9,3.4,1*24
$GPGSV,1,1,04,03,30,106,00,17,45,318,00,19,27,281,00,30,57,227,00,1*6A
$GPRMC,103708.00,A,2100.2770873,N,10550.6342420,E,2.22,145.59,310123,0.0,E,A*3D
$GPGGA,103708.00,2100.2770873,N,10550.6342420,E,3,04,1.0,39.508,M,0.000,M,0.0,*46
$GPGSA,A,3,03,17,19,30,,,,,,,,,3.9,1.9,3.4,1*24
$GPGSV,1,1,04,03,30,106,00,17,45,318,00,19,27,281,00,30,57,227,00,1*6A
$GPRMC,103709.00,A,2100.2770972,N,10550.6342478,E,5.30,212.31,310123,0.0,E,A*3A
$GPGGA,103709.00,2100.2770972,N,10550.6342478,E,3,04,1.0,39.525,M,0.000,M,0.0,*45
$GPGSA,A,3,03,17,19,30,,,,,,,,,3.9,1.9,3.4,1*24
$GPGSV,1,1,04,03,30,106,00,17,45,318,00,19,27,281,00,30,57,227,00,1*6A
$GPRMC,103710.00,A,2100.2771007,N,10550.6342530,E,5.99,79.52,310123,0.0,E,A*0C
$GPGGA,103710.00,2100.2771007,N,10550.6342530,E,3,04,1.0,39.517,M,0.000,M,0.0,*4B
$GPGSA,A,3,03,17,19,30,,,,,,,,,3.9,1.9,3.4,1*24
$GPGSV,1,1,04,03,30,106,00,17,45,318,00,19,27,281,00,30,57,227,00,1*6A
$GPRMC,103711.00,A,2100.2771013,N,10550.6342492,E,1.45,79.52,310123,0.0,E,A*04
$GPGGA,103711.00,2100.2771013,N,10550.6342492,E,3,04,1.0,39.526,M,0.000,M,0.0,*44
$GPGSA,A,3,03,17,19,30,,,,,,,,,3.9,1.9,3.4,1*24
$GPGSV,1,1,04,03,30,106,00,17,45,318,00,19,27,281,00,30,57,227,00,1*6A
$GPRMC,103712.00,A,2100.2770954,N,10550.6342451,E,8.05,341.91,310123,0.0,E,A*39
$GPGGA,103712.00,2100.2770954,N,10550.6342451,E,3,04,1.0,39.528,M,0.000,M,0.0,*4D
$GPGSA,A,3,03,17,19,30,,,,,,,,,3.9,1.9,3.4,1*24
$GPGSV,1,1,04,03,30,106,00,17,45,318,00,19,27,281,00,30,57,227,00,1*6A
$GPRMC,103713.00,A,2100.2770990,N,10550.6342459,E,10.10,60.27,310123,0.0,E,A*38
$GPGGA,103713.00,2100.2770990,N,10550.6342459,E,3,04,1.0,39.528,M,0.000,M,0.0,*4C
$GPGSA,A,3,03,17,19,30,,,,,,,,,3.9,1.9,3.4,1*24
$GPGSV,1,1,04,03,30,106,00,17,45,318,00,19,27,281,00,30,57,227,00,1*6A
$GPRMC,103714.00,A,2100.2771104,N,10550.6342460,E,2.00,252.62,310123,0.0,E,A*31
$GPGGA,103714.00,2100.2771104,N,10550.6342460,E,3,04,1.0,39.502,M,0.000,M,0.0,*4D
$GPGSA,A,3,03,17,19,30,,,,,,,,,3.9,1.9,3.4,1*24
$GPGSV,1,1,04,03,30,106,00,17,45,318,00,19,27,281,00,30,57,227,00,1*6A
$GPRMC,103715.00,A,2100.2771165,N,10550.6342443,E,1.73,252.62,310123,0.0,E,A*31
$GPGGA,103715.00,2100.2771165,N,10550.6342443,E,3,04,1.0,39.535,M,0.000,M,0.0,*4E
$GPGSA,A,3,03,17,19,30,,,,,,,,,3.9,1.9,3.4,1*24
$GPGSV,1,1,04,03,30,106,00,17,45,318,00,19,27,281,00,30,57,227,00,1*6A
$GPRMC,103716.00,A,2100.2771088,N,10550.6342416,E,17.93,168.33,310123,0.0,E,A*07
$GPGGA,103716.00,2100.2771088,N,10550.6342416,E,3,04,1.0,39.587,M,0.000,M,0.0,*46
$GPGSA,A,3,03,17,19,30,,,,,,,,,3.9,1.9,3.4,1*24
$GPGSV,1,1,04,03,30,106,00,17,45,318,00,19,27,281,00,30,57,227,00,1*6A
$GPRMC,103717.00,A,2100.2771178,N,10550.6342381,E,5.99,353.52,310123,0.0,E,A*35
$GPGGA,103717.00,2100.2771178,N,10550.6342381,E,3,04,1.0,39.608,M,0.000,M,0.0,*44
$GPGSA,A,3,03,17,19,30,,,,,,,,,3.9,1.9,3.4,1*24
$GPGSV,1,1,04,03,30,106,00,17,45,318,00,19,27,281,00,30,57,227,00,1*6A
$GPRMC,103718.00,A,2100.2771205,N,10550.6342344,E,7.13,47.00,310123,0.0,E,A*0B
$GPGGA,103718.00,2100.2771205,N,10550.6342344,E,3,04,1.0,39.593,M,0.000,M,0.0,*4A
$GPGSA,A,3,03,17,19,30,,,,,,,,,3.9,1.9,3.4,1*24
$GPGSV,1,1,04,03,30,106,00,17,45,318,00,19,27,281,00,30,57,227,00,1*6A
$GPRMC,103737.00,A,2100.2771244,N,10550.6342448,E,15.02,52.30,310123,0.0,E,A*3C
$GPGGA,103737.00,2100.2771244,N,10550.6342448,E,3,04,1.0,39.638,M,0.000,M,0.0,*4B
$GPGSA,A,3,03,17,19,30,,,,,,,,,3.9,1.9,3.4,1*24
$GPGSV,1,1,04,03,30,105,00,17,45,318,00,19,27,282,00,30,57,227,00,1*6A
$GPRMC,103738.00,A,2100.2771343,N,10550.6342609,E,2.28,70.08,310123,0.0,E,A*07
$GPGGA,103738.00,2100.2771343,N,10550.6342609,E,3,04,1.0,39.649,M,0.000,M,0.0,*43
$GPGSA,A,3,03,17,19,30,,,,,,,,,3.9,1.9,3.4,1*24
$GPGSV,1,1,04,03,30,105,00,17,45,318,00,19,27,282,00,30,57,227,00,1*6A
$GPRMC,103739.00,A,2100.2771412,N,10550.6342696,E,3.60,3.44,310123,0.0,E,A*32
$GPGGA,103739.00,2100.2771412,N,10550.6342696,E,3,04,1.0,39.668,M,0.000,M,0.0,*44
$GPGSA,A,3,03,17,19,30,,,,,,,,,3.9,1.9,3.4,1*24
$GPGSV,1,1,04,03,30,105,00,17,45,318,00,19,27,282,00,30,57,227,00,1*6A
$GPRMC,103740.00,A,2100.2771479,N,10550.6342613,E,4.34,222.02,310123,0.0,E,A*39
$GPGGA,103740.00,2100.2771479,N,10550.6342613,E,3,04,1.0,39.655,M,0.000,M,0.0,*44
$GPGSA,A,3,03,17,19,30,,,,,,,,,3.9,1.9,3.4,1*24
$GPGSV,1,1,04,03,30,105,00,17,45,318,00,19,27,282,00,30,57,227,00,1*6A
$GPRMC,103741.00,A,2100.2771500,N,10550.6342717,E,7.63,56.56,310123,0.0,E,A*03
$GPGGA,103741.00,2100.2771500,N,10550.6342717,E,3,04,1.0,39.687,M,0.000,M,0.0,*40
$GPGSA,A,3,03,17,19,30,,,,,,,,,3.9,1.9,3.4,1*24
$GPGSV,1,1,04,03,30,105,00,17,45,318,00,19,27,282,00,30,57,227,00,1*6A
$GPRMC,103742.00,A,2100.2771499,N,10550.6342705,E,2.91,170.22,310123,0.0,E,A*3C
$GPGGA,103742.00,2100.2771499,N,10550.6342705,E,3,04,1.0,39.700,M,0.000,M,0.0,*4F
$GPGSA,A,3,03,17,19,30,,,,,,,,,3.9,1.9,3.4,1*24
$GPGSV,1,1,04,03,30,105,00,17,45,318,00,19,27,282,00,30,57,227,00,1*6A
$GPRMC,103743.00,A,2100.2771510,N,10550.6342751,E,8.41,57.31,310123,0.0,E,A*0D
$GPGGA,103743.00,2100.2771510,N,10550.6342751,E,3,04,1.0,39.706,M,0.000,M,0.0,*49
$GPGSA,A,3,03,17,19,30,,,,,,,,,3.9,1.9,3.4,1*24
$GPGSV,1,1,04,03,30,105,00,17,45,318,00,19,27,282,00,30,57,227,00,1*6A
$GPRMC,103744.00,A,2100.2771466,N,10550.6342842,E,1.55,57.31,310123,0.0,E,A*0B
$GPGGA,103744.00,2100.2771466,N,10550.6342842,E,3,04,1.0,39.719,M,0.000,M,0.0,*4D
$GPGSA,A,3,03,17,19,30,,,,,,,,,3.9,1.9,3.4,1*24
$GPGSV,1,1,04,03,30,105,00,17,45,318,00,19,27,282,00,30,57,226,00,1*6B
$GPRMC,103745.00,A,2100.2771402,N,10550.6342888,E,1.74,57.31,310123,0.0,E,A*0D
$GPGGA,103745.00,2100.2771402,N,10550.6342888,E,3,04,1.0,39.742,M,0.000,M,0.0,*46
$GPGSA,A,3,03,17,19,30,,,,,,,,,3.9,1.9,3.4,1*24
$GPGSV,1,1,04,03,30,105,00,17,45,318,00,19,27,282,00,30,57,226,00,1*6B
$GPRMC,103746.00,A,2100.2771432,N,10550.6342962,E,1.74,57.31,310123,0.0,E,A*08
$GPGGA,103746.00,2100.2771432,N,10550.6342962,E,3,04,1.0,39.750,M,0.000,M,0.0,*40
$GPGSA,A,3,03,17,19,30,,,,,,,,,3.9,1.9,3.4,1*24
$GPGSV,1,1,04,03,30,105,00,17,45,318,00,19,27,282,00,30,57,226,00,1*6B
$GPRMC,103747.00,A,2100.2771479,N,10550.6343055,E,5.78,78.54,310123,0.0,E,A*0C
$GPGGA,103747.00,2100.2771479,N,10550.6343055,E,3,04,1.0,39.809,M,0.000,M,0.0,*41
$GPGSA,A,3,03,17,19,30,,,,,,,,,3.9,1.9,3.4,1*24
$GPGSV,1,1,04,03,30,105,00,17,45,318,00,19,27,282,00,30,57,226,00,1*6B
$GPRMC,103748.00,A,2100.2771450,N,10550.6343097,E,6.16,268.11,310123,0.0,E,A*3F
$GPGGA,103748.00,2100.2771450,N,10550.6343097,E,3,04,1.0,39.850,M,0.000,M,0.0,*47
$GPGSA,A,3,03,17,19,30,,,,,,,,,3.9,1.9,3.4,1*24
$GPGSV,1,1,04,03,30,105,00,17,45,318,00,19,27,282,00,30,57,226,00,1*6B
$GPRMC,103749.00,A,2100.2771498,N,10550.6343167,E,1.55,268.11,310123,0.0,E,A*34
$GPGGA,103749.00,2100.2771498,N,10550.6343167,E,3,04,1.0,39.874,M,0.000,M,0.0,*4A
$GPGSA,A,3,03,17,19,30,,,,,,,,,3.9,1.9,3.4,1*24
$GPGSV,1,1,04,03,30,105,00,17,45,318,00,19,27,282,00,30,57,226,00,1*6B
$GPRMC,103750.00,A,2100.2771573,N,10550.6343216,E,8.87,241.18,310123,0.0,E,A*39
$GPGGA,103750.00,2100.2771573,N,10550.6343216,E,3,00,1.0,39.891,M,0.000,M,0.0,*4C
$GPGSA,A,3,03,17,19,30,,,,,,,,,3.9,1.9,3.4,1*24
$GPGSV,1,1,04,03,30,105,00,17,45,318,00,19,27,282,00,30,57,226,00,1*6B
$GPRMC,103751.00,A,2100.2771597,N,10550.6343329,E,7.40,236.74,310123,0.0,E,A*31
$GPGGA,103751.00,2100.2771597,N,10550.6343329,E,3,04,1.0,39.941,M,0.000,M,0.0,*42
$GPGSA,A,3,03,17,19,30,,,,,,,,,3.9,1.9,3.4,1*24
$GPGSV,1,1,04,03,30,105,00,17,45,318,00,19,27,282,00,30,57,226,00,1*6B
$GPRMC,103752.00,A,2100.2771625,N,10550.6343315,E,1.17,236.74,310123,0.0,E,A*33
$GPGGA,103752.00,2100.2771625,N,10550.6343315,E,3,04,1.0,39.895,M,0.000,M,0.0,*4C
$GPGSA,A,3,03,17,19,30,,,,,,,,,3.9,1.9,3.4,1*24
$GPGSV,1,1,04,03,30,105,00,17,45,318,00,19,27,282,00,30,57,226,00,1*6B
$GPRMC,103753.00,A,2100.2771583,N,10550.6343288,E,7.92,218.52,310123,0.0,E,A*3B
$GPGGA,103753.00,2100.2771583,N,10550.6343288,E,3,04,1.0,39.874,M,0.000,M,0.0,*48
$GPGSA,A,3,03,17,19,30,,,,,,,,,3.9,1.9,3.4,1*24
$GPGSV,1,1,04,03,30,105,00,17,45,318,00,19,27,282,00,30,57,226,00,1*6B
$GPRMC,103754.00,A,2100.2771515,N,10550.6343330,E,2.93,63.86,310123,0.0,E,A*02
$GPGGA,103754.00,2100.2771515,N,10550.6343330,E,3,04,1.0,39.877,M,0.000,M,0.0,*41
$GPGSA,A,3,03,17,19,30,,,,,,,,,3.9,1.9,3.4,1*24
$GPGSV,1,1,04,03,30,105,00,17,45,318,00,19,27,282,00,30,57,226,00,1*6B
$GPRMC,103755.00,A,2100.2771494,N,10550.6343217,E,2.92,270.61,310123,0.0,E,A*37
$GPGGA,103755.00,2100.2771494,N,10550.6343217,E,3,04,1.0,39.832,M,0.000,M,0.0,*4D
$GPGSA,A,3,03,17,19,30,,,,,,,,,3.9,1.9,3.4,1*24
$GPGSV,1,1,04,03,30,105,00,17,45,318,00,19,27,282,00,30,57,226,00,1*6B
$GPRMC,103756.00,A,2100.2771513,N,10550.6343261,E,2.39,281.31,310123,0.0,E,A*31
$GPGGA,103756.00,2100.2771513,N,10550.6343261,E,3,04,1.0,39.838,M,0.000,M,0.0,*4B
$GPGSA,A,3,03,17,19,30,,,,,,,,,3.9,1.9,3.4,1*24
$GPGSV,1,1,04,03,30,105,00,17,45,318,00,19,27,282,00,30,57,226,00,1*6B
$GPRMC,103757.00,A,2100.2771577,N,10550.6343345,E,9.01,76.45,310123,0.0,E,A*0C
$GPGGA,103757.00,2100.2771577,N,10550.6343345,E,3,04,1.0,39.839,M,0.000,M,0.0,*4E
$GPGSA,A,3,03,17,19,30,,,,,,,,,3.9,1.9,3.4,1*24
$GPGSV,1,1,04,03,30,105,00,17,45,318,00,19,27,282,00,30,57,226,00,1*6B
$GPRMC,103758.00,A,2100.2771607,N,10550.6343430,E,1.67,76.45,310123,0.0,E,A*0A
$GPGGA,103758.00,2100.2771607,N,10550.6343430,E,3,04,1.0,39.873,M,0.000,M,0.0,*4E
$GPGSA,A,3,03,17,19,30,,,,,,,,,3.9,1.9,3.4,1*24
$GPGSV,1,1,04,03,30,105,00,17,45,318,00,19,27,282,00,30,57,226,00,1*6B
$GPRMC,103759.00,A,2100.2771681,N,10550.6343558,E,2.32,74.40,310123,0.0,E,A*0E
$GPGGA,103759.00,2100.2771681,N,10550.6343558,E,3,04,1.0,39.924,M,0.000,M,0.0,*4D
$GPGSA,A,3,03,17,19,30,,,,,,,,,3.9,1.9,3.4,1*24
$GPGSV,1,1,04,03,30,105,00,17,45,318,00,19,27,282,00,30,57,226,00,1*6B
$GPRMC,103800.00,A,2100.2771691,N,10550.6343703,E,3.27,150.57,310123,0.0,E,A*34
$GPGGA,103800.00,2100.2771691,N,10550.6343703,E,3,04,1.0,39.977,M,0.000,M,0.0,*45
$GPGSA,A,3,03,17,19,30,,,,,,,,,3.9,1.9,3.4,1*24
$GPGSV,1,1,04,03,30,105,00,17,45,318,00,19,27,282,00,30,57,226,00,1*6B
$GPRMC,103801.00,A,2100.2771689,N,10550.6343758,E,7.02,218.45,310123,0.0,E,A*3D
$GPGGA,103801.00,2100.2771689,N,10550.6343758,E,3,04,1.0,40.022,M,0.000,M,0.0,*44
$GPGSA,A,3,03,17,19,30,,,,,,,,,3.9,1.9,3.4,1*24
$GPGSV,1,1,04,03,30,105,00,17,45,318,00,19,27,282,00,30,57,226,00,1*6B
$GPRMC,103802.00,A,2100.2771698,N,10550.6343804,E,8.33,132.50,310123,0.0,E,A*3A
$GPGGA,103802.00,2100.2771698,N,10550.6343804,E,3,04,1.0,40.055,M,0.000,M,0.0,*41
$GPGSA,A,3,03,17,19,30,,,,,,,,,3.9,1.9,3.4,1*24
$GPGSV,1,1,04,03,30,105,00,17,45,318,00,19,27,282,00,30,57,226,00,1*6B
$GPRMC,103803.00,A,2100.2771713,N,10550.6343907,E,1.84,132.50,310123,0.0,E,A*3E
$GPGGA,103803.00,2100.2771713,N,10550.6343907,E,3,04,1.0,40.054,M,0.000,M,0.0,*41
$GPGSA,A,3,03,17,19,30,,,,,,,,,3.9,1.9,3.4,1*24
$GPGSV,1,1,04,03,30,105,00,17,45,318,00,19,27,282,00,30,57,226,00,1*6B
$GPRMC,103804.00,A,2100.2771725,N,10550.6343868,E,10.50,74.22,310123,0.0,E,A*3B
$GPGGA,103804.00,2100.2771725,N,10550.6343868,E,3,04,1.0,40.036,M,0.000,M,0.0,*4F
$GPGSA,A,3,03,17,19,30,,,,,,,,,3.9,1.9,3.4,1*24
$GPGSV,1,1,04,03,30,105,00,17,45,318,00,19,27,282,00,30,57,226,00,1*6B
$GPRMC,103805.00,A,2100.2771749,N,10550.6343912,E,13.04,349.73,310123,0.0,E,A*07
$GPGGA,103805.00,2100.2771749,N,10550.6343912,E,3,04,1.0,40.048,M,0.000,M,0.0,*41
$GPGSA,A,3,03,17,19,30,,,,,,,,,3.9,1.9,3.4,1*24
$GPGSV,1,1,04,03,30,105,00,17,45,318,00,19,27,282,00,30,57,226,00,1*6B
$GPRMC,103806.00,A,2100.2771778,N,10550.6343952,E,5.28,208.14,310123,0.0,E,A*3E
$GPGGA,103806.00,2100.2771778,N,10550.6343952,E,3,04,1.0,40.064,M,0.000,M,0.0,*4A
$GPGSA,A,3,03,17,19,30,,,,,,,,,3.9,1.9,3.4,1*24
$GPGSV,1,1,04,03,30,105,00,17,45,318,00,19,27,282,00,30,57,226,00,1*6B
$GPRMC,103807.00,A,2100.2771828,N,10550.6343953,E,4.26,49.22,310123,0.0,E,A*09
$GPGGA,103807.00,2100.2771828,N,10550.6343953,E,3,00,1.0,40.079,M,0.000,M,0.0,*48
$GPGSA,A,3,03,17,19,30,,,,,,,,,3.9,1.9,3.4,1*24
$GPGSV,1,1,04,03,30,105,00,17,45,318,00,19,27,282,00,30,57,226,00,1*6B
$GPRMC,103808.00,A,2100.2771896,N,10550.6343989,E,5.81,322.86,310123,0.0,E,A*38
$GPGGA,103808.00,2100.2771896,N,10550.6343989,E,3,04,1.0,40.060,M,0.000,M,0.0,*49
$GPGSA,A,3,03,17,19,30,,,,,,,,,3.9,1.9,3.4,1*24
$GPGSV,1,1,04,03,30,105,00,17,45,318,00,19,27,282,00,30,57,226,00,1*6B
$GPRMC,103809.00,A,2100.2771942,N,10550.6344128,E,3.94,135.31,310123,0.0,E,A*3F
$GPGGA,103809.00,2100.2771942,N,10550.6344128,E,3,04,1.0,40.113,M,0.000,M,0.0,*41
$GPGSA,A,3,03,17,19,30,,,,,,,,,3.9,1.9,3.4,1*24
$GPGSV,1,1,04,03,30,105,00,17,45,318,00,19,27,282,00,30,57,226,00,1*6B
$GPRMC,103810.00,A,2100.2772023,N,10550.6344206,E,1.46,135.31,310123,0.0,E,A*38
$GPGGA,103810.00,2100.2772023,N,10550.6344206,E,3,04,1.0,40.154,M,0.000,M,0.0,*48
$GPGSA,A,3,03,17,19,30,,,,,,,,,3.9,1.9,3.4,1*24
$GPGSV,1,1,04,03,30,105,00,17,45,318,00,19,27,282,00,30,57,226,00,1*6B
$GPRMC,103811.00,A,2100.2771946,N,10550.6344408,E,2.25,180.87,310123,0.0,E,A*3D
$GPGGA,103811.00,2100.2771946,N,10550.6344408,E,3,04,1.0,40.213,M,0.000,M,0.0,*48
$GPGSA,A,3,03,17,19,30,,,,,,,,,3.9,1.9,3.5,1*25
$GPGSV,1,1,04,03,30,105,00,17,45,318,00,19,27,282,00,30,57,226,00,1*6B
$GPRMC,103812.00,A,2100.2771969,N,10550.6344344,E,1.71,180.87,310123,0.0,E,A*3E
$GPGGA,103812.00,2100.2771969,N,10550.6344344,E,3,04,1.0,40.208,M,0.000,M,0.0,*43
$GPGSA,A,3,03,17,19,30,,,,,,,,,3.9,1.9,3.5,1*25
$GPGSV,1,1,04,03,30,105,00,17,45,318,00,19,27,282,00,30,57,226,00,1*6B
$GPRMC,103813.00,A,2100.2771967,N,10550.6344426,E,5.43,233.10,310123,0.0,E,A*32
$GPGGA,103813.00,2100.2771967,N,10550.6344426,E,3,04,1.0,40.248,M,0.000,M,0.0,*4B
$GPGSA,A,3,03,17,19,30,,,,,,,,,3.9,1.9,3.5,1*25
$GPGSV,1,1,04,03,30,105,00,17,45,319,00,19,27,282,00,30,57,226,00,1*6A
$GPRMC,103814.00,A,2100.2771952,N,10550.6344374,E,2.59,239.51,310123,0.0,E,A*30
$GPGGA,103814.00,2100.2771952,N,10550.6344374,E,3,04,1.0,40.241,M,0.000,M,0.0,*43
$GPGSA,A,3,03,17,19,30,,,,,,,,,3.9,1.9,3.5,1*25
$GPGSV,1,1,04,03,30,105,00,17,45,319,00,19,27,282,00,30,57,226,00,1*6A
$GPRMC,103815.00,A,2100.2771938,N,10550.6344472,E,12.59,240.80,310123,0.0,E,A*0F
$GPGGA,103815.00,2100.2771938,N,10550.6344472,E,3,04,1.0,40.269,M,0.000,M,0.0,*45
$GPGSA,A,3,03,17,19,30,,,,,,,,,3.9,1.9,3.5,1*25
$GPGSV,1,1,04,03,30,105,00,17,45,319,00,19,27,282,00,30,57,226,00,1*6A
$GPRMC,103816.00,A,2100.2771957,N,10550.6344554,E,1.48,240.80,310123,0.0,E,A*32
$GPGGA,103816.00,2100.2771957,N,10550.6344554,E,3,04,1.0,40.321,M,0.000,M,0.0,*47
$GPGSA,A,3,03,17,19,30,,,,,,,,,3.9,1.9,3.5,1*25
$GPGSV,1,1,04,03,30,105,00,17,45,319,00,19,27,282,00,30,57,226,00,1*6A
$GPRMC,103817.00,A,2100.2771983,N,10550.6344635,E,0.86,240.80,310123,0.0,E,A*3D
$GPGGA,103817.00,2100.2771983,N,10550.6344635,E,3,04,1.0,40.381,M,0.000,M,0.0,*41
$GPGSA,A,3,03,17,19,30,,,,,,,,,4.0,1.9,3.5,1*2B
$GPGSV,1,1,04,03,30,105,00,17,45,319,00,19,27,282,00,30,57,226,00,1*6A
$GPRMC,103818.00,A,2100.2772079,N,10550.6344788,E,4.98,328.18,310123,0.0,E,A*3F
$GPGGA,103818.00,2100.2772079,N,10550.6344788,E,3,04,1.0,40.412,M,0.000,M,0.0,*4B
$GPGSA,A,3,03,17,19,30,,,,,,,,,4.0,1.9,3.5,1*2B
$GPGSV,1,1,04,03,30,105,00,17,45,319,00,19,27,282,00,30,57,226,00,1*6A
$GPRMC,103819.00,A,2100.2772099,N,10550.6344852,E,4.37,202.22,310123,0.0,E,A*3D
$GPGGA,103819.00,2100.2772099,N,10550.6344852,E,3,04,1.0,40.394,M,0.000,M,0.0,*45
$GPGSA,A,3,03,17,19,30,,,,,,,,,4.0,1.9,3.5,1*2B
$GPGSV,1,1,04,03,30,105,00,17,45,319,00,19,27,282,00,30,57,226,00,1*6A
$GPRMC,103820.00,A,2100.2772081,N,10550.6344687,E,2.43,14.60,310123,0.0,E,A*0E
$GPGGA,103820.00,2100.2772081,N,10550.6344687,E,3,04,1.0,40.374,M,0.000,M,0.0,*4E
$GPGSA,A,3,03,17,19,30,,,,,,,,,4.0,1.9,3.5,1*2B
$GPGSV,1,1,04,03,30,105,00,17,45,319,00,19,27,282,00,30,57,226,00,1*6A
$GPRMC,103821.00,A,2100.2772049,N,10550.6344637,E,3.83,318.61,310123,0.0,E,A*33
$GPGGA,103821.00,2100.2772049,N,10550.6344637,E,3,04,1.0,40.383,M,0.000,M,0.0,*48
$GPGSA,A,3,03,17,19,30,,,,,,,,,4.0,1.9,3.5,1*2B
$GPGSV,1,1,04,03,30,105,00,17,45,319,00,19,27,282,00,30,57,226,00,1*6A
$GPRMC,103822.00,A,2100.2772030,N,10550.6344611,E,2.46,194.31,310123,0.0,E,A*31
$GPGGA,103822.00,2100.2772030,N,10550.6344611,E,3,04,1.0,40.387,M,0.000,M,0.0,*45
$GPGSA,A,3,03,17,19,30,,,,,,,,,4.0,1.9,3.5,1*2B
$GPGSV,1,1,04,03,30,105,00,17,45,319,00,19,27,282,00,30,57,226,00,1*6A
$GPRMC,103823.00,A,2100.2772075,N,10550.6344718,E,9.63,267.47,310123,0.0,E,A*3B
$GPGGA,103823.00,2100.2772075,N,10550.6344718,E,3,04,1.0,40.396,M,0.000,M,0.0,*4D
$GPGSA,A,3,03,17,19,30,,,,,,,,,4.0,1.9,3.5,1*2B
$GPGSV,1,1,04,03,30,105,00,17,45,319,00,19,27,282,00,30,57,226,00,1*6A
$GPRMC,103824.00,A,2100.2772088,N,10550.6344715,E,1.11,267.47,310123,0.0,E,A*3E
$GPGGA,103824.00,2100.2772088,N,10550.6344715,E,3,04,1.0,40.397,M,0.000,M,0.0,*44
$GPGSA,A,3,03,17,19,30,,,,,,,,,4.0,1.9,3.5,1*2B
$GPGSV,1,1,04,03,30,105,00,17,45,319,00,19,27,282,00,30,57,226,00,1*6A
$GPRMC,103825.00,A,2100.2772170,N,10550.6344826,E,6.77,137.26,310123,0.0,E,A*30
$GPGGA,103825.00,2100.2772170,N,10550.6344826,E,3,00,1.0,40.435,M,0.000,M,0.0,*47
$GPGSA,A,3,03,17,19,30,,,,,,,,,4.0,1.9,3.5,1*2B
$GPGSV,1,1,04,03,30,105,00,17,45,319,00,19,27,282,00,30,57,226,00,1*6A
$GPRMC,103826.00,A,2100.2772190,N,10550.6344841,E,2.96,221.97,310123,0.0,E,A*39
$GPGGA,103826.00,2100.2772190,N,10550.6344841,E,3,00,1.0,40.469,M,0.000,M,0.0,*42
$GPGSA,A,3,03,17,19,30,,,,,,,,,4.0,1.9,3.5,1*2B
$GPGSV,1,1,04,03,30,105,00,17,45,319,00,19,27,282,00,30,57,226,00,1*6A
$GPRMC,103827.00,A,2100.2772200,N,10550.6344872,E,3.45,355.06,310123,0.0,E,A*37
$GPGGA,103827.00,2100.2772200,N,10550.6344872,E,3,00,1.0,40.449,M,0.000,M,0.0,*4B
$GPGSA,A,3,03,17,19,30,,,,,,,,,4.0,1.9,3.5,1*2B
$GPGSV,1,1,04,03,30,105,00,17,45,319,00,19,27,282,00,30,57,226,00,1*6A
$GPRMC,103828.00,A,2100.2772180,N,10550.6344880,E,1.41,355.06,310123,0.0,E,A*38
$GPGGA,103828.00,2100.2772180,N,10550.6344880,E,3,04,1.0,40.411,M,0.000,M,0.0,*4B
$GPGSA,A,3,03,17,19,30,,,,,,,,,4.0,1.9,3.5,1*2B
$GPGSV,1,1,04,03,30,105,00,17,45,319,00,19,27,282,00,30,57,226,00,1*6A
$GPRMC,103829.00,A,2100.2772179,N,10550.6344856,E,3.61,197.60,310123,0.0,E,A*38
$GPGGA,103829.00,2100.2772179,N,10550.6344856,E,3,00,1.0,40.397,M,0.000,M,0.0,*4A
$GPGSA,A,3,03,17,19,30,,,,,,,,,4.0,1.9,3.5,1*2B
$GPGSV,1,1,04,03,30,105,00,17,45,319,00,19,27,282,00,30,57,226,00,1*6A
$GPRMC,103830.00,A,2100.2772203,N,10550.6344799,E,3.15,224.81,310123,0.0,E,A*35
$GPGGA,103830.00,2100.2772203,N,10550.6344799,E,3,04,1.0,40.350,M,0.000,M,0.0,*4F
$GPGSA,A,3,03,17,19,30,,,,,,,,,4.0,1.9,3.5,1*2B
$GPGSV,1,1,04,03,30,105,00,17,45,319,00,19,27,282,00,30,57,226,00,1*6A
$GPRMC,103831.00,A,2100.2772274,N,10550.6344712,E,3.78,246.89,310123,0.0,E,A*30
$GPGGA,103831.00,2100.2772274,N,10550.6344712,E,3,04,1.0,40.298,M,0.000,M,0.0,*48
