     3.02           OBSERVATION DATA    G                   RINEX VERSION / TYPE
G = GPS  R = GLONASS  E = GALILEO  S = GEO  M = MIXED       COMMENT             
GNSS-SDR            haint               20230131 102530 UTC PGM / RUN BY / DATE 
GPS OBSERVATION DATA FILE GENERATED BY GNSS-SDR             COMMENT             
GNSS-SDR VERSION 0.0.17.git-next-0ff811d00                  COMMENT             
See https://gnss-sdr.org                                    COMMENT             
DEFAULT MARKER NAME                                         MARKER NAME         
haint               CTTC                                    OBSERVER / AGENCY   
GNSS-SDR            Software Receiver   0.0.17.gi           REC # / TYPE / VERS 
Antenna number      Antenna type                            ANT # / TYPE        
        0.0000        0.0000        0.0000                  APPROX POSITION XYZ 
        0.0000        0.0000        0.0000                  ANTENNA: DELTA H/E/N
G    4 C1C L1C D1C S1C                                      SYS / # / OBS TYPES 
DBHZ                                                        SIGNAL STRENGTH UNIT
  2023    01    31    10    25   48.1200000     GPS         TIME OF FIRST OBS   
    18    18   137     7                                    LEAP SECONDS        
                                                            END OF HEADER       
> 2023 01 31 10 25 49.0000000  0  4                                             
G17  22307587.766 7 117227427.353 7      1282.189 7        42.128               
G06  23648802.696 6 124275590.887 6      4535.673 6        36.507               
G03  23574463.871 6 123884886.470 6      2873.598 6        36.052               
G30  21409358.485 7 112507178.920 7       356.987 7        44.867               
> 2023 01 31 10 25 50.0000000  0  4                                             
G17  22307289.719 6 117226145.744 6      1279.039 6        41.904               
G06  23647888.276 5 124271052.968 5      4530.393 5        35.127               
G03  23573859.487 5 123882010.135 5      2877.972 5        35.928               
G30  21409237.548 7 112506822.086 7       356.547 7        44.720               
> 2023 01 31 10 25 51.0000000  0  4                                             
G17  22306989.457 6 117224863.783 6      1282.718 6        41.878               
G06  23646957.335 5 124266514.879 5      4537.130 5        35.444               
G03  23573260.481 5 123879133.704 5      2876.410 5        35.451               
G30  21409112.366 7 112506465.416 7       357.651 7        44.886               
> 2023 01 31 10 25 52.0000000  0  4                                             
G17  22306687.953 7 117223581.412 7      1278.578 7        42.061               
G06  23646055.718 6 124261976.571 6      4544.309 6        36.432               
G03  23572660.860 5 123876257.072 5      2869.718 5        35.809               
G30  21408990.669 7 112506108.828 7       356.754 7        45.344               
> 2023 01 31 10 25 53.0000000  0  4                                             
G17  22306384.332 6 117222299.000 6      1283.556 6        41.656               
G06  23645122.401 5 124257438.398 5      4532.711 5        35.638               
G03  23572043.512 6 123873380.639 6      2876.944 6        36.569               
G30  21408864.532 7 112505752.704 7       355.606 7        45.462               
> 2023 01 31 10 25 54.0000000  0  4                                             
G17  22306085.776 6 117221016.884 6      1280.466 6        41.901               
G06  23644213.761 5 124252900.728 5      4541.821 5        35.428               
G03  23571455.862 5 123870504.766 5      2877.092 5        35.614               
G30  21408745.944 7 112505397.375 7       355.092 7        45.431               
> 2023 01 31 10 25 55.0000000  0  4                                             
G17  22305787.363 7 117219734.580 7      1281.230 7        42.306               
G06  23643301.852 5 124248362.998 5      4536.010 5        35.890               
G03  23570839.550 6 123867628.902 6      2880.261 6        36.120               
G30  21408626.919 7 112505042.337 7       354.920 7        45.164               
> 2023 01 31 10 26 43.0000000  0  4                                             
G17  22291361.433 7 117142065.917 7      1303.790 7        42.463               
G06  23599161.005 5 124014608.893 5      4545.482 5        35.577               
G03  23541913.060 6 123713727.729 6      2890.086 6        36.161               
G30  21402776.395 7 112472527.779 7       350.286 7        44.605               
> 2023 01 31 10 26 44.0000000  0  4                                             
G17  22291062.922 7 117140763.247 7      1301.724 7        42.480               
G06  23598240.580 5 124010059.923 5      4542.574 5        34.948               
G03  23541298.893 6 123710843.360 6      2893.838 6        36.541               
G30  21402653.581 7 112472176.922 7       351.426 7        44.508               
> 2023 01 31 10 26 45.0000000  0  4                                             
G17  22290765.278 7 117139460.418 7      1304.047 7        42.359               
G06  23597332.334 5 124005510.954 5      4547.089 5        34.427               
G03  23540713.575 5 123707959.083 5      2880.422 5        35.803               
G30  21402534.297 7 112471826.413 7       350.863 7        44.621               
> 2023 01 31 10 27 07.0000000  0  4                                             
G17  22284067.450 6 117103788.043 6      1314.843 6        41.606               
G06  23577052.360 5 123898508.849 5      4565.122 5        35.548               
G03  23527408.220 6 123637573.128 6      2893.246 6        36.071               
G30  21399853.505 7 112457194.499 7       354.842 7        44.947               
> 2023 01 31 10 27 08.0000000  0  4                                             
G17  22283763.793 6 117102470.664 6      1316.466 6        41.777               
G06  23576130.452 5 123893949.759 5      4560.973 5        35.207               
G03  23526794.884 6 123634679.966 6      2897.370 6        36.631               
G30  21399725.197 7 112456840.935 7       354.493 7        44.667               
> 2023 01 31 10 27 09.0000000  0  4                                             
G17  22283455.963 7 117101152.563 7      1321.083 7        42.118               
G06  23575210.287 6 123889390.111 6      4556.842 6        36.112               
G03  23526197.058 6 123631786.378 6      2898.217 6        36.595               
G30  21399610.594 7 112456487.183 7       354.038 7        44.371               
> 2023 01 31 10 27 10.0000000  0  4                                             
G17  22283146.525 7 117099834.269 7      1320.343 7        42.226               
G06  23574284.591 5 123884830.464 5      4566.209 5        35.365               
G03  23525593.925 6 123628892.831 6      2894.008 6        36.565               
G30  21399487.762 7 112456133.710 7       354.643 7        45.046               
> 2023 01 31 10 27 11.0000000  0  4                                             
G17  22282840.500 6 117098514.691 6      1321.995 6        41.725               
G06  23573363.880 5 123880269.717 5      4566.234 5        35.690               
G03  23524992.784 6 123625998.228 6      2901.874 6        36.046               
G30  21399368.335 7 112455779.452 7       353.272 7        44.563               
> 2023 01 31 10 27 12.0000000  0  4                                             
G17  22282537.209 7 117097194.358 7      1322.634 7        42.183               
G06  23572440.320 5 123875708.410 5      4562.879 5        35.336               
G03  23524376.669 6 123623103.152 6      2889.877 6        36.245               
G30  21399243.198 7 112455424.947 7       354.461 7        44.807               
> 2023 01 31 10 27 13.0000000  0  4                                             
G17  22282231.158 7 117095873.330 7      1323.043 7        42.501               
G06  23571518.555 6 123871146.597 6      4564.659 6        36.208               
G03  23523776.529 6 123620207.612 6      2903.365 6        36.073               
G30  21399112.111 7 112455070.265 7       354.682 7        45.028               
> 2023 01 31 10 27 14.0000000  0  4                                             
G17  22281923.909 7 117094551.752 7      1320.792 7        42.312               
G06  23570611.935 5 123866584.427 5      4562.780 5        35.293               
G03  23523173.458 6 123617311.787 6      2895.755 6        36.466               
G30  21398991.048 7 112454715.513 7       356.036 7        45.012               
> 2023 01 31 10 27 15.0000000  0  4                                             
G17  22281618.357 7 117093229.033 7      1323.678 7        42.628               
G06  23569670.371 5 123862021.324 5      4571.019 5        35.998               
G03  23522561.346 6 123614415.023 6      2904.601 6        36.386               
G30  21398872.871 7 112454360.110 7       355.262 7        45.005               
> 2023 01 31 10 27 16.0000000  0  4                                             
G17  22281310.608 7 117091905.721 7      1322.407 7        42.345               
G06  23568766.020 6 123857457.815 6      4546.559 6        36.158               
G03  23521958.088 6 123611517.966 6      2894.330 6        36.429               
G30  21398749.495 7 112454004.610 7       355.678 7        44.696               
> 2023 01 31 10 27 17.0000000  0  4                                             
G17  22281006.906 7 117090581.752 7      1322.862 7        42.162               
G06  23567840.449 6 123852893.830 6      4573.795 6        36.105               
G03  23521353.695 6 123608620.475 6      2896.148 6        36.223               
G30  21398630.576 7 112453648.992 7       356.797 7        44.517               
> 2023 01 31 10 27 18.0000000  0  4                                             
G17  22280701.399 7 117089256.929 7      1321.697 7        42.376               
G06  23566902.174 5 123848329.194 5      4566.529 5        35.885               
G03  23520746.389 6 123605722.430 6      2895.077 6        36.234               
G30  21398501.213 7 112453293.006 7       356.084 7        44.679               
> 2023 01 31 10 27 19.0000000  0  4                                             
G17  22280398.135 7 117087931.341 7      1327.736 7        42.185               
G06  23565965.873 6 123843763.996 6      4563.822 6        36.185               
G03  23520150.180 5 123602823.807 5      2903.109 5        35.703               
G30  21398378.194 7 112452936.743 7       357.569 7        44.768               
> 2023 01 31 10 27 20.0000000  0  4                                             
G17  22280087.929 7 117086605.128 7      1328.179 7        42.196               
G06  23565041.401 6 123839198.350 6      4564.382 6        36.135               
G03  23519527.802 6 123599924.849 6      2890.150 6        36.317               
G30  21398263.046 7 112452580.377 7       357.834 7        44.788               
> 2023 01 31 10 27 21.0000000  0  4                                             
G17  22279780.573 7 117085278.219 7      1327.592 7        42.519               
G06  23564130.956 5 123834632.215 5      4569.024 5        35.776               
G03  23518919.773 6 123597025.444 6      2899.740 6        36.596               
G30  21398141.233 7 112452223.800 7       356.666 7        44.736               
> 2023 01 31 10 27 22.0000000  0  4                                             
G17  22279475.710 7 117083950.896 7      1328.015 7        42.150               
G06  23563203.688 5 123830065.855 5      4566.163 5        35.893               
G03  23518304.096 6 123594125.886 6      2893.290 6        36.698               
G30  21398020.957 7 112451867.312 7       354.609 7        44.374               
> 2023 01 31 10 27 23.0000000  0  4                                             
G17  22279169.202 7 117082623.697 7      1327.818 7        42.021               
G06  23562285.444 5 123825499.808 5      4562.734 5        35.589               
G03  23517707.333 6 123591226.659 6      2894.629 6        36.411               
G30  21397891.120 7 112451511.435 7       356.303 7        44.262               
> 2023 01 31 10 27 24.0000000  0  4                                             
G17  22278862.007 7 117081294.687 7      1328.127 7        42.265               
G06  23561349.312 6 123820932.143 6      4568.185 6        36.299               
G03  23517105.486 5 123588325.873 5      2900.908 5        35.820               
G30  21397763.598 7 112451154.258 7       355.461 7        44.406               
> 2023 01 31 10 27 25.0000000  0  4                                             
G17  22278545.966 7 117079965.561 7      1327.607 7        42.455               
G06  23560435.553 5 123816364.565 5      4572.668 5        35.711               
G03  23516486.441 6 123585425.252 6      2895.238 6        36.330               
G30  21397638.399 7 112450797.466 7       354.251 7        44.434               
> 2023 01 31 10 27 26.0000000  0  4                                             
G17  22278239.316 7 117078635.516 7      1328.926 7        42.376               
G06  23559521.695 5 123811796.265 5      4570.393 5        35.963               
G03  23515875.320 6 123582524.010 6      2896.684 6        36.253               
G30  21397523.322 7 112450440.264 7       359.925 7        44.519               
> 2023 01 31 10 27 27.0000000  0  4                                             
G17  22277929.932 6 117077304.767 6      1332.754 6        41.936               
G06  23558599.207 5 123807227.448 5      4573.112 5        35.674               
G03  23515281.068 6 123579622.268 6      2897.501 6        36.239               
G30  21397404.386 7 112450082.874 7       358.668 7        44.767               
> 2023 01 31 10 27 28.0000000  0  4                                             
G17  22277621.557 7 117075973.351 7      1332.528 7        42.108               
G06  23557662.397 6 123802658.129 6      4564.426 6        36.062               
G03  23514676.211 6 123576720.068 6      2906.075 6        36.683               
G30  21397278.794 7 112449725.261 7       358.920 7        45.102               
> 2023 01 31 10 27 29.0000000  0  4                                             
G17  22277312.754 7 117074640.803 7      1331.506 7        42.641               
G06  23556739.766 6 123798087.942 6      4567.203 6        36.088               
G03  23514067.056 6 123573817.073 6      2900.101 6        36.168               
G30  21397153.353 7 112449367.061 7       361.256 7        45.115               
> 2023 01 31 10 27 30.0000000  0  4                                             
G17  22277006.237 7 117073306.559 7      1335.654 7        42.120               
G06  23555797.880 5 123793516.214 5      4567.815 5        35.643               
G03  23513461.028 6 123570912.597 6      2895.485 6        36.361               
G30  21397028.100 7 112449007.673 7       360.779 7        44.691               
> 2023 01 31 10 27 31.0000000  0  4                                             
G17  22276696.755 7 117071972.290 7      1334.311 7        42.821               
G06  23554904.581 6 123788944.665 6      4569.630 6        36.093               
G03  23512845.404 6 123568008.344 6      2909.627 6        36.081               
G30  21396910.209 7 112448648.742 7       357.695 7        44.598               
> 2023 01 31 10 27 32.0000000  0  4                                             
G17  22276389.193 7 117070637.504 7      1335.950 7        42.611               
G06  23553976.804 6 123784372.774 6      4569.708 6        36.202               
G03  23512236.624 5 123565103.814 5      2909.761 5        35.287               
G30  21396789.978 7 112448289.800 7       358.612 7        44.607               
> 2023 01 31 10 27 33.0000000  0  4                                             
G17  22276080.533 7 117069302.244 7      1334.124 7        42.060               
G06  23553036.437 6 123779800.641 6      4571.805 6        36.011               
G03  23511638.092 5 123562199.087 5      2901.212 5        35.913               
G30  21396663.840 7 112447930.895 7       359.984 7        44.777               
> 2023 01 31 10 27 34.0000000  0  4                                             
G17  22275772.149 7 117067966.191 7      1336.818 7        42.230               
G06  23552120.400 6 123775227.886 6      4574.520 6        36.326               
G03  23511031.707 6 123559293.813 6      2898.737 6        36.479               
G30  21396541.330 7 112447571.680 7       359.844 7        44.467               
> 2023 01 31 10 27 35.0000000  0  4                                             
G17  22275462.014 7 117066629.231 7      1337.262 7        42.084               
G06  23551190.264 6 123770654.406 6      4571.868 6        36.495               
G03  23510423.133 6 123556387.892 6      2903.633 6        36.605               
G30  21396415.184 7 112447212.052 7       359.647 7        43.985               
> 2023 01 31 10 27 36.0000000  0  4                                             
G17  22275152.523 6 117065291.821 6      1335.605 6        41.640               
G06  23550264.586 5 123766080.679 5      4576.604 5        35.979               
G03  23509820.670 6 123553481.757 6      2904.127 6        36.606               
G30  21396291.548 7 112446852.500 7       360.769 7        44.149               
> 2023 01 31 10 27 37.0000000  0  4                                             
G17  22274836.902 6 117063953.706 6      1335.664 6        41.997               
G06  23549338.845 5 123761506.467 5      4571.203 5        35.267               
G03  23509208.763 6 123550575.197 6      2906.623 6        36.146               
G30  21396171.799 7 112446492.735 7       360.525 7        44.636               
> 2023 01 31 10 27 38.0000000  0  4                                             
G17  22274539.151 7 117062614.770 7      1342.580 7        42.310               
G06  23548399.524 5 123756931.617 5      4568.437 5        35.755               
G03  23508591.719 6 123547668.059 6      2910.954 6        36.050               
G30  21396049.548 7 112446132.652 7       361.238 7        44.626               
> 2023 01 31 10 27 39.0000000  0  4                                             
G17  22274219.563 6 117061275.074 6      1341.219 6        41.971               
G06  23547485.336 6 123752356.203 6      4585.165 6        36.226               
G03  23507989.006 6 123544760.417 6      2919.645 6        36.487               
G30  21395927.690 7 112445772.296 7       362.838 7        44.440               
> 2023 01 31 10 27 40.0000000  0  4                                             
G17  22273916.192 7 117059934.769 7      1342.410 7        42.046               
G06  23546561.758 5 123747780.362 5      4582.767 5        35.637               
G03  23507374.454 6 123541852.412 6      2906.466 6        36.083               
G30  21395805.502 7 112445411.845 7       360.779 7        44.513               
> 2023 01 31 10 27 41.0000000  0  4                                             
G17  22273603.940 7 117058593.826 7      1338.891 7        42.184               
G06  23545646.792 5 123743204.110 5      4578.316 5        35.551               
G03  23506777.933 5 123538944.064 5      2900.266 5        35.622               
G30  21395675.272 7 112445051.254 7       359.095 7        45.034               
> 2023 01 31 10 27 42.0000000  0  4                                             
G17  22273294.850 7 117057252.245 7      1338.352 7        42.215               
G06  23544706.113 5 123738627.408 5      4570.085 5        35.885               
G03  23506162.193 6 123536035.260 6      2912.220 6        36.105               
G30  21395551.324 7 112444690.525 7       361.222 7        44.609               
> 2023 01 31 10 27 43.0000000  0  4                                             
G17  22272980.498 7 117055910.119 7      1343.195 7        42.531               
G06  23543770.866 5 123734050.395 5      4579.670 5        35.818               
G03  23505545.345 5 123533126.243 5      2911.378 5        35.742               
G30  21395431.056 7 112444329.773 7       361.125 7        44.380               
> 2023 01 31 10 27 44.0000000  0  4                                             
G17  22272666.048 6 117054567.215 6      1341.066 6        41.954               
G06  23542865.041 5 123729472.748 5      4578.791 5        35.160               
G03  23504939.836 5 123530216.680 5      2908.261 5        35.892               
G30  21395311.182 7 112443968.716 7       359.693 7        44.472               
> 2023 01 31 10 27 45.0000000  0  4                                             
G17  22272353.153 6 117053224.669 6      1339.922 6        41.894               
G06  23541942.231 5 123724895.596 5      4579.028 5        35.886               
G03  23504346.709 6 123527307.705 6      2910.861 6        36.314               
G30  21395187.501 7 112443608.518 7       358.770 7        44.908               
> 2023 01 31 10 27 46.0000000  0  4                                             
G17  22272051.801 6 117051881.207 6      1343.530 6        41.658               
G06  23541008.083 6 123720317.862 6      4572.312 6        36.050               
G03  23503729.352 5 123524398.081 5      2915.556 5        35.930               
G30  21395055.244 7 112443247.936 7       361.091 7        44.419               
> 2023 01 31 10 27 47.0000000  0  4                                             
G17  22271745.195 6 117050536.808 6      1343.775 6        41.399               
G06  23540068.289 5 123715739.282 5      4576.617 5        35.493               
G03  23503120.921 6 123521487.803 6      2906.338 6        36.851               
G30  21394933.225 7 112442886.879 7       361.849 7        44.892               
> 2023 01 31 10 27 48.0000000  0  4                                             
G17  22271429.449 6 117049191.716 6      1345.302 6        41.288               
G06  23539155.673 5 123711160.264 5      4570.596 5        35.335               
G03  23502507.933 6 123518577.026 6      2918.693 6        36.191               
G30  21394809.384 7 112442525.630 7       361.302 7        45.048               
> 2023 01 31 10 27 49.0000000  0  4                                             
G17  22271120.378 6 117047845.832 6      1348.953 6        41.576               
G06  23538225.197 6 123706580.635 6      4583.688 6        36.278               
G03  23501896.616 5 123515665.771 5      2908.165 5        35.995               
G30  21394696.068 7 112442164.128 7       362.213 7        44.871               
> 2023 01 31 10 27 50.0000000  0  4                                             
G17  22270814.013 6 117046499.184 6      1346.294 6        41.783               
G06  23537303.334 6 123702000.428 6      4585.192 6        36.419               
G03  23501291.589 6 123512753.980 6      2913.699 6        36.145               
G30  21394569.921 7 112441802.342 7       362.512 7        44.803               
> 2023 01 31 10 27 51.0000000  0  4                                             
G17  22270497.428 7 117045151.715 7      1350.150 7        42.016               
G06  23536368.990 5 123697419.616 5      4580.235 5        35.277               
G03  23500685.605 5 123509841.615 5      2908.048 5        35.986               
G30  21394442.980 7 112441440.215 7       362.212 7        44.554               
> 2023 01 31 10 27 52.0000000  0  4                                             
G17  22270186.033 7 117043803.744 7      1349.609 7        42.022               
G06  23535449.388 5 123692838.455 5      4589.579 5        35.160               
G03  23500081.847 6 123506929.006 6      2913.179 6        36.158               
G30  21394313.420 7 112441078.091 7       362.486 7        44.687               
> 2023 01 31 10 27 53.0000000  0  4                                             
G17  22269873.415 7 117042455.094 7      1349.125 7        42.268               
G06  23534533.314 5 123688256.856 5      4581.126 5        34.997               
G03  23499461.479 6 123504016.013 6      2905.553 6        36.021               
G30  21394190.919 7 112440715.795 7       364.045 7        44.597               
> 2023 01 31 10 27 54.0000000  0  4                                             
G17  22269562.208 7 117041105.511 7      1349.801 7        42.274               
G06  23533604.840 5 123683674.526 5      4587.148 5        35.643               
G03  23498863.019 6 123501102.310 6      2907.790 6        36.396               
G30  21394072.760 7 112440353.070 7       362.689 7        44.477               
> 2023 01 31 10 27 55.0000000  0  4                                             
G17  22269247.356 7 117039755.026 7      1352.081 7        42.737               
G06  23532663.544 5 123679091.504 5      4581.230 5        35.727               
G03  23498234.494 5 123498187.986 5      2912.517 5        35.820               
G30  21393948.562 7 112439989.960 7       362.652 7        45.183               
> 2023 01 31 10 27 56.0000000  0  4                                             
G17  22268942.412 7 117038404.084 7      1353.253 7        42.677               
G06  23531745.184 5 123674508.162 5      4580.865 5        35.324               
G03  23497631.575 5 123495273.437 5      2917.553 5        35.328               
G30  21393822.683 7 112439626.895 7       361.553 7        44.737               
> 2023 01 31 10 27 57.0000000  0  4                                             
G17  22268625.344 7 117037051.800 7      1352.974 7        42.090               
G06  23530812.492 5 123669923.726 5      4583.803 5        35.062               
G03  23497031.944 5 123492357.794 5      2914.347 5        35.849               
G30  21393697.180 7 112439262.952 7       364.558 7        44.746               
> 2023 01 31 10 35 37.0000000  0  4                                             
G17  22110256.661 7 116190432.093 7      1656.007 7        42.578               
G19  23445199.171 6 123205621.437 6      3071.161 6        36.120               
G03  23207490.158 6 121956475.299 6      3084.091 6        37.051               
G30  21331929.623 7 112100291.076 7       438.555 7        43.968               
> 2023 01 31 10 35 38.0000000  0  4                                             
G17  22109881.375 7 116188774.140 7      1658.384 7        42.197               
G19  23444576.007 5 123202551.452 5      3069.205 5        35.911               
G03  23206843.193 6 121953389.204 6      3090.669 6        36.447               
G30  21331793.122 7 112099851.511 7       441.039 7        44.056               
> 2023 01 31 10 35 39.0000000  0  4                                             
G17  22109520.528 7 116187115.563 7      1653.505 7        42.295               
G19  23443927.933 6 123199480.895 6      3074.645 6        36.416               
G03  23206190.696 6 121950302.799 6      3081.614 6        36.511               
G30  21331654.181 7 112099411.808 7       439.099 7        44.460               
> 2023 01 31 10 35 40.0000000  0  4                                             
G17  22109137.068 7 116185457.094 7      1656.712 7        42.001               
G19  23443279.502 6 123196410.543 6      3069.667 6        36.605               
G03  23205559.553 5 121947216.854 5      3078.634 5        35.741               
G30  21331507.182 7 112098972.725 7       438.302 7        44.709               
> 2023 01 31 10 35 41.0000000  0  4                                             
G17  22108774.800 6 116183798.464 6      1658.212 6        41.987               
G19  23442640.416 6 123193340.057 6      3077.206 6        36.657               
G03  23204921.719 6 121944131.048 6      3083.270 6        36.554               
G30  21331370.251 7 112098533.964 7       439.201 7        44.434               
> 2023 01 31 10 35 42.0000000  0  4                                             
G17  22108401.624 7 116182139.206 7      1657.902 7        42.166               
G19  23442014.804 6 123190269.064 6      3072.614 6        36.032               
G03  23204276.727 6 121941044.985 6      3083.011 6        36.233               
G30  21331231.954 7 112098095.090 7       441.353 7        44.478               
> 2023 01 31 10 35 43.0000000  0  4                                             
G17  22108035.800 7 116180479.576 7      1659.832 7        42.025               
G19  23441368.678 6 123187197.720 6      3066.892 6        36.779               
G03  23203624.043 6 121937958.835 6      3089.403 6        36.279               
G30  21331093.970 7 112097656.329 7       438.838 7        43.975               
> 2023 01 31 10 35 44.0000000  0  4                                             
G17  22107660.694 7 116178819.374 7      1660.093 7        42.184               
G19  23440730.012 6 123184125.896 6      3083.997 6        36.389               
G03  23202996.564 6 121934872.478 6      3081.823 6        36.841               
G30  21330959.255 7 112097217.486 7       436.776 7        44.357               
> 2023 01 31 10 35 45.0000000  0  4                                             
G17  22107287.901 7 116177159.047 7      1660.206 7        42.355               
G19  23440089.327 6 123181054.052 6      3067.684 6        36.205               
G03  23202344.014 6 121931786.277 6      3083.822 6        36.774               
G30  21330823.156 7 112096779.019 7       438.452 7        44.184               
> 2023 01 31 10 35 46.0000000  0  4                                             
G17  22106919.067 7 116175498.192 7      1661.186 7        42.339               
G19  23439453.985 6 123177981.701 6      3082.811 6        36.107               
G03  23201713.532 6 121928699.920 6      3089.862 6        36.418               
G30  21330682.491 7 112096340.514 7       439.286 7        44.583               
> 2023 01 31 10 35 47.0000000  0  4                                             
G17  22106549.580 6 116173836.984 6      1661.303 6        41.767               
G19  23438807.323 5 123174909.074 5      3064.126 5        35.836               
G03  23201060.437 6 121925613.520 6      3084.167 6        37.124               
G30  21330543.139 7 112095902.171 7       438.237 7        43.948               
> 2023 01 31 10 35 48.0000000  0  4                                             
G17  22106168.175 7 116172175.605 7      1660.586 7        42.312               
G19  23438167.576 6 123171836.360 6      3078.152 6        36.175               
G03  23200423.710 6 121922527.279 6      3090.791 6        36.771               
G30  21330405.235 7 112095464.138 7       436.023 7        44.297               
> 2023 01 31 10 35 49.0000000  0  4                                             
G17  22105806.881 7 116170513.875 7      1662.398 7        42.239               
G19  23437546.244 6 123168763.349 6      3069.149 6        36.595               
G03  23199780.095 6 121919441.018 6      3085.048 6        36.751               
G30  21330265.472 7 112095026.255 7       438.678 7        43.765               
> 2023 01 31 10 35 50.0000000  0  4                                             
G17  22105431.167 6 116168851.358 6      1661.501 6        41.848               
G19  23436877.201 6 123165689.642 6      3059.586 6        36.399               
G03  23199119.826 6 121916354.334 6      3082.485 6        36.620               
G30  21330134.081 7 112094588.088 7       438.664 7        43.944               
> 2023 01 31 10 35 51.0000000  0  4                                             
G17  22105058.607 7 116167188.350 7      1665.936 7        42.100               
G19  23436252.669 6 123162615.464 6      3078.905 6        36.735               
G03  23198493.838 5 121913267.449 5      3094.970 5        35.853               
G30  21329993.738 7 112094149.916 7       438.129 7        44.213               
> 2023 01 31 10 35 52.0000000  0  4                                             
G17  22104694.096 7 116165524.998 7      1664.481 7        42.071               
G19  23435611.824 6 123159541.035 6      3069.446 6        36.120               
G03  23197861.748 6 121910180.592 6      3088.292 6        36.457               
G30  21329846.605 7 112093711.894 7       438.090 7        44.067               
> 2023 01 31 10 35 53.0000000  0  4                                             
G17  22104316.953 7 116163861.304 7      1667.546 7        42.135               
G19  23434974.034 5 123156466.364 5      3070.193 5        35.406               
G03  23197212.763 5 121907093.687 5      3081.293 5        35.911               
G30  21329711.211 7 112093274.023 7       436.778 7        44.748               
> 2023 01 31 10 35 54.0000000  0  4                                             
G17  22103954.515 7 116162197.139 7      1665.930 7        42.091               
G19  23434332.973 6 123153391.297 6      3085.611 6        36.603               
G03  23196568.084 6 121904006.693 6      3082.356 6        36.750               
G30  21329571.672 7 112092836.202 7       437.809 7        44.828               
> 2023 01 31 10 35 55.0000000  0  4                                             
G17  22103572.976 6 116160532.717 6      1666.073 6        41.850               
G19  23433704.520 6 123150316.022 6      3065.490 6        36.428               
G03  23195936.968 5 121900919.672 5      3088.903 5        35.907               
G30  21329428.496 7 112092398.576 7       439.685 7        43.829               
> 2023 01 31 10 35 56.0000000  0  4                                             
G17  22103209.154 7 116158867.908 7      1665.097 7        42.341               
G19  23433053.212 6 123147240.397 6      3071.107 6        36.644               
G03  23195281.184 6 121897832.660 6      3091.545 6        36.473               
G30  21329298.472 7 112091961.077 7       438.185 7        43.911               
> 2023 01 31 10 35 57.0000000  0  4                                             
G17  22102836.728 7 116157202.650 7      1664.024 7        42.248               
G19  23432412.286 6 123144164.455 6      3075.289 6        36.793               
G03  23194650.863 6 121894745.548 6      3082.356 6        36.731               
G30  21329162.641 7 112091523.642 7       436.764 7        43.904               
> 2023 01 31 10 35 58.0000000  0  4                                             
G17  22102466.115 7 116155537.088 7      1666.048 7        42.186               
G19  23431771.467 6 123141088.251 6      3077.973 6        36.601               
G03  23193994.436 6 121891658.413 6      3092.190 6        36.811               
G30  21329025.568 7 112091086.386 7       437.224 7        44.242               
> 2023 01 31 10 35 59.0000000  0  4                                             
G17  22102087.551 7 116153871.142 7      1665.357 7        42.406               
G19  23431132.667 6 123138011.749 6      3076.731 6        36.649               
G03  23193351.660 6 121888571.265 6      3084.199 6        36.880               
G30  21328890.433 7 112090649.235 7       438.731 7        44.068               
> 2023 01 31 10 36 00.0000000  0  4                                             
G17  22101719.958 6 116152204.753 6      1669.066 6        41.838               
G19  23430491.250 6 123134934.839 6      3087.819 6        36.317               
G03  23192724.315 6 121885483.991 6      3089.108 6        36.618               
G30  21328750.188 7 112090212.148 7       437.692 7        44.088               
> 2023 01 31 10 36 01.0000000  0  4                                             
G17  22101348.729 6 116150537.842 6      1667.516 6        41.321               
G19  23429849.323 6 123131857.500 6      3076.056 6        36.168               
G03  23192070.210 6 121882396.536 6      3089.498 6        36.432               
G30  21328613.294 7 112089775.022 7       438.236 7        44.666               
> 2023 01 31 10 36 02.0000000  0  4                                             
G17  22100974.373 7 116148870.981 7      1666.034 7        42.375               
G19  23429206.136 6 123128780.259 6      3079.183 6        36.296               
G03  23191437.164 6 121879309.440 6      3087.455 6        37.012               
G30  21328471.458 7 112089338.457 7       434.995 7        44.345               
> 2023 01 31 10 36 03.0000000  0  4                                             
G17  22100599.982 6 116147203.302 6      1667.496 6        41.964               
G19  23428577.200 6 123125702.269 6      3080.905 6        36.643               
G03  23190787.741 6 121876221.869 6      3087.943 6        36.399               
G30  21328334.340 7 112088901.539 7       436.428 7        44.100               
> 2023 01 31 10 36 04.0000000  0  4                                             
G17  22100227.305 6 116145535.364 6      1671.013 6        41.702               
G19  23427930.333 6 123122624.140 6      3088.110 6        36.513               
G03  23190140.686 5 121873134.402 5      3090.074 5        35.916               
G30  21328197.463 7 112088464.884 7       439.145 7        44.445               
> 2023 01 31 10 36 05.0000000  0  4                                             
G17  22099861.598 6 116143867.263 6      1669.185 6        41.503               
G19  23427287.477 6 123119545.887 6      3093.740 6        36.067               
G03  23189507.587 6 121870047.041 6      3087.495 6        36.723               
G30  21328053.770 7 112088028.562 7       435.787 7        44.668               
> 2023 01 31 10 36 06.0000000  0  4                                             
G17  22099494.523 6 116142198.685 6      1669.875 6        41.769               
G19  23426647.114 5 123116467.207 5      3085.512 5        35.711               
G03  23188862.041 6 121866959.595 6      3087.402 6        36.596               
G30  21327914.427 7 112087592.248 7       437.237 7        44.293               
> 2023 01 31 10 36 07.0000000  0  4                                             
G17  22099114.503 7 116140529.648 7      1669.095 7        42.025               
G19  23426005.419 5 123113388.216 5      3080.091 5        35.773               
G03  23188220.919 6 121863871.994 6      3090.542 6        36.463               
G30  21327779.310 7 112087155.975 7       437.115 7        44.314               
> 2023 01 31 10 36 08.0000000  0  4                                             
G17  22098739.343 6 116138860.271 6      1672.721 6        41.618               
G19  23425364.645 6 123110308.874 6      3079.426 6        36.383               
G03  23187580.940 6 121860784.388 6      3096.818 6        36.591               
G30  21327642.166 7 112086719.857 7       434.743 7        44.355               
> 2023 01 31 10 36 09.0000000  0  4                                             
G17  22098369.365 6 116137190.428 6      1670.924 6        41.494               
G19  23424722.271 6 123107229.189 6      3067.862 6        36.318               
G03  23186941.318 6 121857696.668 6      3094.485 6        36.249               
G30  21327507.514 7 112086283.799 7       434.583 7        44.641               
> 2023 01 31 10 36 10.0000000  0  4                                             
G17  22097994.866 6 116135520.008 6      1670.224 6        41.455               
G19  23424078.611 6 123104148.982 6      3077.212 6        36.241               
G03  23186294.719 6 121854608.665 6      3087.212 6        36.299               
G30  21327372.558 7 112085847.611 7       436.719 7        44.723               
> 2023 01 31 10 36 11.0000000  0  4                                             
G17  22097630.454 6 116133849.162 6      1670.721 6        41.914               
G19  23423443.475 5 123101068.353 5      3084.377 5        35.462               
G03  23185648.548 6 121851520.607 6      3090.136 6        36.322               
G30  21327230.865 7 112085411.529 7       434.768 7        44.665               
> 2023 01 31 10 36 37.0000000  0  4                                             
G17  22087907.704 6 116072909.754 6      1680.393 6        41.305               
G19  23406752.556 6 123003514.121 6      3087.922 6        36.480               
G03  23168946.658 5 121753817.906 5      3087.849 5        35.955               
G30  21323657.266 7 112056771.482 7       434.663 7        44.283               
> 2023 01 31 10 36 38.0000000  0  4                                             
G17  22087524.431 6 116071228.757 6      1680.756 6        41.389               
G19  23406102.812 5 123000425.325 5      3084.922 5        35.591               
G03  23168290.847 6 121750728.746 6      3085.352 6        36.090               
G30  21323516.137 7 112056338.578 7       430.256 7        44.779               
> 2023 01 31 10 36 39.0000000  0  4                                             
G17  22087163.647 6 116069547.604 6      1680.407 6        41.656               
G19  23405469.176 5 122997336.425 5      3097.643 5        35.996               
G03  23167632.168 5 121747639.752 5      3088.704 5        35.877               
G30  21323381.521 7 112055906.035 7       430.568 7        44.671               
> 2023 01 31 10 36 40.0000000  0  4                                             
G17  22086777.595 6 116067865.969 6      1682.070 6        41.900               
G19  23404841.822 6 122994247.141 6      3083.643 6        36.376               
G03  23167009.933 5 121744550.645 5      3091.250 5        35.434               
G30  21323241.302 7 112055473.521 7       430.816 7        44.080               
> 2023 01 31 10 36 41.0000000  0  4                                             
G17  22086407.573 6 116066183.955 6      1682.083 6        41.758               
G19  23404193.650 6 122991157.514 6      3085.901 6        36.811               
G03  23166376.610 5 121741461.465 5      3088.599 5        35.716               
G30  21323104.309 7 112055041.108 7       432.464 7        44.041               
> 2023 01 31 10 36 42.0000000  0  4                                             
G17  22086025.774 6 116064501.621 6      1683.053 6        41.490               
G19  23403538.178 6 122988067.675 6      3088.441 6        36.601               
G03  23165717.654 6 121738372.331 6      3085.429 6        36.492               
G30  21322960.794 7 112054608.881 7       432.971 7        44.506               
> 2023 01 31 10 36 43.0000000  0  4                                             
G17  22085652.231 6 116062818.965 6      1682.674 6        41.964               
G19  23402892.535 6 122984977.555 6      3091.383 6        36.143               
G03  23165076.782 6 121735283.166 6      3086.127 6        36.323               
G30  21322824.972 7 112054176.814 7       432.890 7        44.805               
> 2023 01 31 10 36 44.0000000  0  4                                             
G17  22085277.375 7 116061136.069 7      1684.960 7        42.239               
G19  23402264.260 6 122981887.283 6      3091.928 6        36.388               
G03  23164446.380 6 121732194.145 6      3103.971 6        36.350               
G30  21322693.179 7 112053745.026 7       431.260 7        44.173               
> 2023 01 31 10 36 45.0000000  0  4                                             
G17  22084901.232 6 116059452.816 6      1684.636 6        41.688               
G19  23401613.175 6 122978796.729 6      3085.912 6        36.889               
G03  23163789.488 5 121729105.125 5      3084.912 5        35.787               
G30  21322559.018 7 112053313.348 7       430.190 7        44.106               
> 2023 01 31 10 36 46.0000000  0  4                                             
G17  22084525.196 7 116057768.997 7      1685.417 7        42.053               
G19  23400973.607 6 122975705.684 6      3094.312 6        37.035               
G03  23163147.633 6 121726015.840 6      3084.043 6        36.378               
G30  21322422.865 7 112052881.600 7       431.734 7        44.405               
> 2023 01 31 10 36 47.0000000  0  4                                             
G17  22084151.367 6 116056084.967 6      1681.749 6        41.828               
G19  23400331.680 6 122972614.498 6      3087.541 6        36.523               
G03  23162507.958 6 121722926.692 6      3088.067 6        36.573               
G30  21322283.844 7 112052450.151 7       431.566 7        44.530               
> 2023 01 31 10 36 48.0000000  0  4                                             
G17  22083776.556 6 116054400.799 6      1684.214 6        41.286               
G19  23399684.983 6 122969523.271 6      3094.558 6        36.492               
G03  23161868.309 6 121719837.718 6      3084.314 6        36.643               
G30  21322147.396 7 112052019.049 7       430.511 7        44.667               
> 2023 01 31 10 36 49.0000000  0  4                                             
G17  22083405.675 6 116052716.405 6      1682.586 6        41.470               
G19  23399037.624 6 122966431.838 6      3092.651 6        36.684               
G03  23161232.002 6 121716748.879 6      3086.156 6        36.101               
G30  21322010.002 7 112051588.198 7       433.337 7        44.230               
> 2023 01 31 10 36 50.0000000  0  4                                             
G17  22083023.814 6 116051031.707 6      1684.202 6        41.472               
G19  23398387.325 5 122963340.219 5      3090.186 5        35.810               
G03  23160586.895 6 121713660.073 6      3083.143 6        36.336               
G30  21321876.055 7 112051157.565 7       431.907 7        44.648               
> 2023 01 31 10 36 51.0000000  0  4                                             
G17  22082652.871 6 116049346.709 6      1682.440 6        41.598               
G19  23397751.956 5 122960248.327 5      3097.110 5        35.676               
G03  23159939.875 6 121710571.336 6      3086.117 6        36.593               
G30  21321735.632 7 112050727.133 7       430.893 7        44.407               
> 2023 01 31 10 36 52.0000000  0  4                                             
G17  22082275.924 6 116047661.117 6      1685.546 6        41.531               
G19  23397100.077 5 122957155.944 5      3087.130 5        35.656               
G03  23159300.674 6 121707482.303 6      3091.819 6        36.508               
G30  21321601.775 7 112050296.586 7       431.203 7        44.385               
> 2023 01 31 10 36 53.0000000  0  4                                             
G17  22081898.325 6 116045975.195 6      1690.250 6        41.297               
G19  23396458.999 5 122954063.261 5      3095.792 5        35.569               
G03  23158653.618 6 121704393.290 6      3084.055 6        36.654               
G30  21321460.082 7 112049866.194 7       431.946 7        44.264               
> 2023 01 31 10 36 54.0000000  0  4                                             
G17  22081526.872 6 116044289.080 6      1687.084 6        41.733               
G19  23395828.749 6 122950970.481 6      3086.374 6        36.787               
G03  23158009.235 6 121701304.424 6      3079.141 6        36.144               
G30  21321320.954 7 112049436.120 7       431.297 7        44.468               
> 2023 01 31 10 36 55.0000000  0  4                                             
G17  22081141.991 6 116042602.799 6      1686.271 6        41.216               
G19  23395192.934 6 122947877.616 6      3096.546 6        36.165               
G03  23157368.192 6 121698215.732 6      3089.107 6        36.282               
G30  21321186.052 7 112049006.367 7       429.186 7        44.290               
> 2023 01 31 10 36 56.0000000  0  4                                             
G17  22080767.841 6 116040915.925 6      1681.594 6        41.531               
G19  23394537.123 6 122944784.230 6      3101.100 6        36.145               
G03  23156733.181 6 121695126.800 6      3088.023 6        36.568               
G30  21321056.126 7 112048576.512 7       430.041 7        44.401               
> 2023 01 31 10 36 57.0000000  0  4                                             
G17  22080395.638 6 116039229.914 6      1686.479 6        41.537               
G19  23393887.548 6 122941691.767 6      3097.183 6        36.526               
G03  23156086.233 6 121692039.037 6      3085.699 6        36.230               
G30  21320916.507 7 112048148.031 7       426.563 7        44.652               
> 2023 01 31 10 36 58.0000000  0  4                                             
G17  22080023.489 6 116037544.413 6      1685.866 6        41.894               
G19  23393247.774 6 122938599.899 6      3096.989 6        36.270               
G03  23155453.982 5 121688952.162 5      3087.511 5        35.866               
G30  21320779.478 7 112047720.542 7       427.050 7        44.288               
> 2023 01 31 10 36 59.0000000  0  4                                             
G17  22079644.549 6 116035859.024 6      1684.509 6        41.697               
G19  23392600.487 6 122935508.247 6      3086.941 6        36.241               
G03  23154794.097 5 121685865.740 5      3085.204 5        35.965               
G30  21320647.417 7 112047293.678 7       424.747 7        44.220               
> 2023 01 31 10 37 00.0000000  0  4                                             
G17  22079269.899 6 116034173.459 6      1684.497 6        41.190               
G19  23391950.537 6 122932416.435 6      3092.112 6        36.502               
G03  23154145.139 5 121682779.502 5      3080.679 5        35.908               
G30  21320514.802 7 112046867.125 7       427.099 7        43.865               
> 2023 01 31 10 37 01.0000000  0  4                                             
G17  22078892.621 6 116032487.242 6      1685.016 6        41.328               
G19  23391308.646 6 122929324.068 6      3093.306 6        37.298               
G03  23153515.327 6 121679692.888 6      3083.442 6        36.691               
G30  21320375.924 7 112046440.398 7       425.154 7        43.878               
> 2023 01 31 10 37 02.0000000  0  4                                             
G17  22078515.111 6 116030800.665 6      1688.222 6        41.826               
G19  23390674.698 5 122926231.385 5      3097.574 5        35.857               
G03  23152877.743 6 121676606.283 6      3078.395 6        36.603               
G30  21320239.056 7 112046013.821 7       425.503 7        43.962               
> 2023 01 31 10 37 03.0000000  0  4                                             
G17  22078143.105 6 116029113.710 6      1683.787 6        41.712               
G19  23390034.567 6 122923138.404 6      3090.502 6        36.191               
G03  23152233.752 6 121673519.681 6      3082.485 6        36.085               
G30  21320103.037 7 112045587.363 7       427.151 7        44.181               
> 2023 01 31 10 37 04.0000000  0  4                                             
G17  22077763.951 6 116027426.417 6      1687.217 6        41.862               
G19  23389387.029 6 122920045.162 6      3099.925 6        36.212               
G03  23151590.440 6 121670433.043 6      3084.752 6        36.595               
G30  21319964.481 7 112045161.042 7       424.590 7        44.583               
> 2023 01 31 10 37 05.0000000  0  4                                             
G17  22077387.719 6 116025738.579 6      1687.564 6        41.467               
G19  23388751.660 6 122916951.472 6      3088.471 6        36.152               
G03  23150958.315 6 121667346.212 6      3080.846 6        36.549               
G30  21319824.397 7 112044734.692 7       427.249 7        43.832               
> 2023 01 31 10 37 06.0000000  0  4                                             
G17  22077009.637 6 116024049.957 6      1691.189 6        41.555               
G19  23388109.081 6 122913857.063 6      3092.039 6        36.296               
G03  23150307.480 6 121664258.947 6      3090.303 6        36.228               
G30  21319689.048 7 112044308.054 7       427.194 7        44.210               
> 2023 01 31 10 37 07.0000000  0  4                                             
G17  22076638.587 6 116022360.107 6      1688.347 6        41.589               
G19  23387460.543 6 122910761.486 6      3092.146 6        36.361               
G03  23149658.048 6 121661170.796 6      3083.647 6        36.389               
G30  21319553.324 7 112043880.657 7       425.666 7        44.691               
> 2023 01 31 10 37 08.0000000  0  4                                             
G17  22076260.532 6 116020669.993 6      1689.149 6        41.666               
G19  23386819.804 6 122907665.698 6      3093.997 6        36.680               
G03  23149017.667 6 121658082.713 6      3080.976 6        36.323               
G30  21319414.919 7 112043453.513 7       425.991 7        44.239               
> 2023 01 31 10 37 09.0000000  0  4                                             
G17  22075885.604 6 116018979.564 6      1691.141 6        41.812               
G19  23386170.230 6 122904569.682 6      3107.558 6        36.365               
G03  23148387.632 6 121654994.656 6      3092.133 6        36.627               
G30  21319283.796 7 112043026.557 7       428.501 7        43.885               
> 2023 01 31 10 37 10.0000000  0  4                                             
G17  22075502.581 6 116017288.176 6      1689.537 6        41.162               
G19  23385519.216 5 122901472.790 5      3104.659 5        35.970               
G03  23147737.530 6 121651906.000 6      3090.782 6        36.456               
G30  21319153.513 7 112042599.115 7       423.939 7        44.012               
> 2023 01 31 10 37 11.0000000  0  4                                             
G17  22075124.991 6 116015596.751 6      1692.253 6        41.304               
G19  23384879.836 6 122898375.963 6      3110.887 6        36.166               
G03  23147096.729 6 121648817.616 6      3091.154 6        37.046               
G30  21319014.224 7 112042172.134 7       424.641 7        44.321               
> 2023 01 31 10 37 12.0000000  0  4                                             
G17  22074754.477 6 116013906.239 6      1689.356 6        41.435               
G19  23384235.291 5 122895280.032 5      3104.957 5        35.246               
G03  23146455.911 6 121645730.517 6      3090.275 6        36.244               
G30  21318874.989 7 112041746.553 7       424.854 7        44.581               
> 2023 01 31 10 37 13.0000000  0  4                                             
G17  22074377.369 6 116012214.866 6      1693.910 6        41.559               
G19  23383595.214 6 122892183.376 6      3107.351 6        36.040               
G03  23145813.019 6 121642642.854 6      3092.779 6        36.050               
G30  21318741.927 7 112041320.612 7       426.782 7        44.412               
> 2023 01 31 10 37 14.0000000  0  4                                             
G17  22074005.631 6 116010522.034 6      1691.729 6        41.655               
G19  23382937.804 6 122889085.337 6      3095.690 6        36.072               
G03  23145167.876 6 121639554.148 6      3080.254 6        36.157               
G30  21318603.478 7 112040893.723 7       425.497 7        43.904               
> 2023 01 31 10 37 15.0000000  0  4                                             
G17  22073621.670 6 116008829.225 6      1692.107 6        41.930               
G19  23382293.733 6 122885987.391 6      3092.596 6        36.050               
G03  23144522.688 6 121636465.729 6      3083.952 6        36.758               
G30  21318464.734 7 112040467.332 7       425.121 7        43.967               
> 2023 01 31 10 37 16.0000000  0  4                                             
G17  22073249.289 6 116007137.095 6      1690.189 6        41.988               
G19  23381659.338 5 122882890.169 5      3097.625 5        35.615               
G03  23143893.609 6 121633378.340 6      3087.131 6        36.205               
G30  21318328.947 7 112040042.106 7       425.391 7        44.080               
> 2023 01 31 10 37 17.0000000  0  4                                             
G17  22072866.507 6 116005445.334 6      1690.997 6        41.319               
G19  23381021.735 5 122879793.375 5      3102.787 5        35.856               
G03  23143235.636 6 121630291.683 6      3084.577 6        36.640               
G30  21318195.698 7 112039617.748 7       423.863 7        44.395               
> 2023 01 31 10 37 18.0000000  0  4                                             
G17  22072499.907 6 116003752.877 6      1690.319 6        41.300               
G19  23380375.591 6 122876695.964 6      3094.551 6        36.250               
G03  23142584.899 5 121627204.666 5      3086.757 5        35.777               
G30  21318056.042 7 112039193.161 7       424.407 7        44.677               
> 2023 01 31 10 37 19.0000000  0  4                                             
G17  22072112.042 6 116002059.736 6      1696.950 6        41.487               
G19  23379730.466 5 122873597.953 5      3106.758 5        35.789               
G03  23141945.421 6 121624117.335 6      3089.208 6        36.338               
G30  21317926.849 7 112038768.417 7       424.304 7        44.137               
> 2023 01 31 10 37 20.0000000  0  4                                             
G17  22071744.708 6 116000366.022 6      1688.617 6        41.312               
G19  23379077.460 6 122870499.437 6      3094.050 6        36.174               
G03  23141314.975 6 121621029.706 6      3088.494 6        36.242               
G30  21317793.555 7 112038343.554 7       422.575 7        44.552               
> 2023 01 31 10 37 21.0000000  0  4                                             
G17  22071362.105 6 115998671.845 6      1693.901 6        41.841               
G19  23378428.440 5 122867400.498 5      3100.343 5        35.776               
G03  23140663.792 6 121617941.964 6      3088.962 6        36.488               
G30  21317655.741 7 112037918.727 7       424.715 7        44.793               
> 2023 01 31 10 37 22.0000000  0  4                                             
G17  22070986.320 7 115996977.298 7      1692.056 7        42.094               
G19  23377804.561 5 122864301.251 5      3099.338 5        35.734               
G03  23140029.182 6 121614854.201 6      3089.913 6        36.637               
G30  21317521.303 7 112037494.020 7       425.748 7        44.478               
> 2023 01 31 10 37 23.0000000  0  4                                             
G17  22070607.729 6 115995282.617 6      1690.039 6        41.958               
G19  23377133.463 5 122861201.944 5      3089.106 5        35.586               
G03  23139388.158 6 121611766.692 6      3089.643 6        36.598               
G30  21317384.257 7 112037069.665 7       422.980 7        44.229               
> 2023 01 31 10 37 24.0000000  0  4                                             
G17  22070228.405 6 115993587.721 6      1695.761 6        41.459               
G19  23376495.288 6 122858102.509 6      3099.544 6        36.315               
G03  23138745.767 6 121608679.267 6      3086.700 6        36.327               
G30  21317245.486 7 112036645.625 7       423.275 7        44.567               
> 2023 01 31 10 37 25.0000000  0  4                                             
G17  22069848.304 6 115991892.648 6      1694.282 6        41.355               
G19  23375860.724 6 122855002.972 6      3098.541 6        36.087               
