$GPRMC,031401.00,A,2100.3682773,N,10550.5873431,E,1.39,0.00,130822,0.0,E,A*32
$GPGGA,031401.00,2100.3682773,N,10550.5873431,E,3,06,1.0,-28.861,M,0.000,M,0.0,*69
$GPGSA,A,3,02,05,06,12,19,20,,,,,,,4.0,1.4,3.8,1*2D
$GPGSV,2,1,06,02,40,329,00,05,49,245,00,06,33,046,00,12,43,271,00,1*60
$GPGSV,2,2,06,19,41,115,00,20,70,324,00,,,,,,,,,1*6A
$GPRMC,031402.00,A,2100.3683840,N,10550.5872545,E,1.06,0.00,130822,0.0,E,A*30
$GPGGA,031402.00,2100.3683840,N,10550.5872545,E,3,06,1.0,-27.076,M,0.000,M,0.0,*66
$GPGSA,A,3,02,05,06,12,19,20,,,,,,,4.0,1.4,3.8,1*2D
$GPGSV,2,1,06,02,40,329,00,05,49,245,00,06,33,046,00,12,43,271,00,1*60
$GPGSV,2,2,06,19,41,115,00,20,69,324,00,,,,,,,,,1*62
$GPRMC,031403.00,A,2100.3686945,N,10550.5872816,E,1.15,0.00,130822,0.0,E,A*39
$GPGGA,031403.00,2100.3686945,N,10550.5872816,E,3,06,1.0,-26.861,M,0.000,M,0.0,*62
$GPGSA,A,3,02,05,06,12,19,20,,,,,,,4.0,1.4,3.8,1*2D
$GPGSV,2,1,06,02,40,329,00,05,49,245,00,06,33,046,00,12,43,271,00,1*60
$GPGSV,2,2,06,19,41,115,00,20,69,324,00,,,,,,,,,1*62
$GPRMC,031404.00,A,2100.3689266,N,10550.5872917,E,2.39,54.14,130822,0.0,E,A*02
$GPGGA,031404.00,2100.3689266,N,10550.5872917,E,3,06,1.0,-28.295,M,0.000,M,0.0,*6F
$GPGSA,A,3,02,05,06,12,19,20,,,,,,,4.0,1.4,3.8,1*2D
$GPGSV,2,1,06,02,40,329,00,05,49,245,00,06,33,046,00,12,43,271,00,1*60
$GPGSV,2,2,06,19,41,115,00,20,69,324,00,,,,,,,,,1*62
$GPRMC,031405.00,A,2100.3694506,N,10550.5875111,E,4.28,19.57,130822,0.0,E,A*0F
$GPGGA,031405.00,2100.3694506,N,10550.5875111,E,3,06,1.0,-29.424,M,0.000,M,0.0,*67
$GPGSA,A,3,02,05,06,12,19,20,,,,,,,4.0,1.4,3.8,1*2D
$GPGSV,2,1,06,02,40,329,00,05,49,245,00,06,33,046,00,12,43,271,00,1*60
$GPGSV,2,2,06,19,41,115,00,20,69,324,00,,,,,,,,,1*62
$GPRMC,031406.00,A,2100.3696049,N,10550.5873818,E,1.78,19.57,130822,0.0,E,A*06
$GPGGA,031406.00,2100.3696049,N,10550.5873818,E,3,06,1.0,-29.704,M,0.000,M,0.0,*6F
$GPGSA,A,3,02,05,06,12,19,20,,,,,,,4.0,1.4,3.8,1*2D
$GPGSV,2,1,06,02,40,329,00,05,49,245,00,06,33,046,00,12,43,271,00,1*60
$GPGSV,2,2,06,19,41,115,00,20,69,324,00,,,,,,,,,1*62
$GPRMC,031407.00,A,2100.3695605,N,10550.5873558,E,2.11,296.70,130822,0.0,E,A*3F
$GPGGA,031407.00,2100.3695605,N,10550.5873558,E,3,06,1.0,-30.095,M,0.000,M,0.0,*6D
$GPGSA,A,3,02,05,06,12,19,20,,,,,,,4.0,1.4,3.8,1*2D
$GPGSV,2,1,06,02,40,329,00,05,49,245,00,06,33,046,00,12,43,271,00,1*60
$GPGSV,2,2,06,19,41,115,00,20,69,324,00,,,,,,,,,1*62
$GPRMC,031408.00,A,2100.3696830,N,10550.5873193,E,2.39,134.33,130822,0.0,E,A*3E
$GPGGA,031408.00,2100.3696830,N,10550.5873193,E,3,06,1.0,-30.380,M,0.000,M,0.0,*6D
$GPGSA,A,3,02,05,06,12,19,20,,,,,,,4.0,1.4,3.8,1*2D
$GPGSV,2,1,06,02,40,329,00,05,49,245,00,06,33,046,00,12,43,271,00,1*60
$GPGSV,2,2,06,19,41,115,00,20,69,324,00,,,,,,,,,1*62
$GPRMC,031409.00,A,2100.3700479,N,10550.5870575,E,0.86,134.33,130822,0.0,E,A*39
$GPGGA,031409.00,2100.3700479,N,10550.5870575,E,3,06,1.0,-29.812,M,0.000,M,0.0,*64
$GPGSA,A,3,02,05,06,12,19,20,,,,,,,4.0,1.4,3.8,1*2D
$GPGSV,2,1,06,02,40,329,00,05,49,245,00,06,33,046,00,12,43,271,00,1*60
$GPGSV,2,2,06,19,41,115,00,20,69,324,00,,,,,,,,,1*62
$GPRMC,031410.00,A,2100.3701437,N,10550.5869595,E,2.42,97.87,130822,0.0,E,A*01
$GPGGA,031410.00,2100.3701437,N,10550.5869595,E,3,06,1.0,-29.531,M,0.000,M,0.0,*6D
$GPGSA,A,3,02,05,06,12,19,20,,,,,,,4.0,1.4,3.8,1*2D
$GPGSV,2,1,06,02,40,329,00,05,49,245,00,06,33,046,00,12,43,271,00,1*60
$GPGSV,2,2,06,19,41,115,00,20,69,324,00,,,,,,,,,1*62
$GPRMC,031411.00,A,2100.3704188,N,10550.5869506,E,1.27,97.87,130822,0.0,E,A*0E
$GPGGA,031411.00,2100.3704188,N,10550.5869506,E,3,06,1.0,-29.363,M,0.000,M,0.0,*63
$GPGSA,A,3,02,05,06,12,19,20,,,,,,,4.0,1.4,3.8,1*2D
$GPGSV,2,1,06,02,40,329,00,05,49,245,00,06,33,046,00,12,43,271,00,1*60
$GPGSV,2,2,06,19,41,115,00,20,69,324,00,,,,,,,,,1*62
$GPRMC,031412.00,A,2100.3706810,N,10550.5869927,E,3.59,202.23,130822,0.0,E,A*33
$GPGGA,031412.00,2100.3706810,N,10550.5869927,E,3,06,1.0,-29.116,M,0.000,M,0.0,*65
$GPGSA,A,3,02,05,06,12,19,20,,,,,,,4.0,1.4,3.8,1*2D
$GPGSV,2,1,06,02,40,329,00,05,49,245,00,06,33,046,00,12,43,271,00,1*60
$GPGSV,2,2,06,19,41,115,00,20,69,324,00,,,,,,,,,1*62
$GPRMC,031413.00,A,2100.3708041,N,10550.5869831,E,1.31,202.23,130822,0.0,E,A*3A
$GPGGA,031413.00,2100.3708041,N,10550.5869831,E,3,06,1.0,-28.741,M,0.000,M,0.0,*65
$GPGSA,A,3,02,05,06,12,19,20,,,,,,,4.0,1.4,3.8,1*2D
$GPGSV,2,1,06,02,40,329,00,05,49,245,00,06,33,046,00,12,43,271,00,1*60
$GPGSV,2,2,06,19,41,115,00,20,69,324,00,,,,,,,,,1*62
$GPRMC,031414.00,A,2100.3708665,N,10550.5869836,E,2.92,14.40,130822,0.0,E,A*00
$GPGGA,031414.00,2100.3708665,N,10550.5869836,E,3,06,1.0,-28.447,M,0.000,M,0.0,*60
$GPGSA,A,3,02,05,06,12,19,20,,,,,,,4.0,1.4,3.8,1*2D
$GPGSV,2,1,06,02,40,329,00,05,49,245,00,06,33,046,00,12,43,271,00,1*60
$GPGSV,2,2,06,19,41,115,00,20,69,324,00,,,,,,,,,1*62
$GPRMC,031415.00,A,2100.3708727,N,10550.5869728,E,0.80,14.40,130822,0.0,E,A*07
$GPGGA,031415.00,2100.3708727,N,10550.5869728,E,3,06,1.0,-27.873,M,0.000,M,0.0,*62
$GPGSA,A,3,02,05,06,12,19,20,,,,,,,4.0,1.4,3.8,1*2D
$GPGSV,2,1,06,02,40,329,00,05,49,245,00,06,33,046,00,12,43,271,00,1*60
$GPGSV,2,2,06,19,41,115,00,20,69,324,00,,,,,,,,,1*62
$GPRMC,031416.00,A,2100.3708586,N,10550.5869411,E,1.50,14.40,130822,0.0,E,A*08
$GPGGA,031416.00,2100.3708586,N,10550.5869411,E,3,06,1.0,-27.712,M,0.000,M,0.0,*69
$GPGSA,A,3,02,05,06,12,19,20,,,,,,,4.0,1.4,3.8,1*2D
$GPGSV,2,1,06,02,40,329,00,05,49,246,00,06,33,046,00,12,43,271,00,1*63
$GPGSV,2,2,06,19,41,115,00,20,69,324,00,,,,,,,,,1*62
$GPRMC,031417.00,A,2100.3708177,N,10550.5869162,E,3.08,143.18,130822,0.0,E,A*33
$GPGGA,031417.00,2100.3708177,N,10550.5869162,E,3,06,1.0,-27.518,M,0.000,M,0.0,*6B
$GPGSA,A,3,02,05,06,12,19,20,,,,,,,4.0,1.4,3.8,1*2D
$GPGSV,2,1,06,02,40,329,00,05,49,246,00,06,33,046,00,12,43,271,00,1*63
$GPGSV,2,2,06,19,41,115,00,20,69,324,00,,,,,,,,,1*62
$GPRMC,031418.00,A,2100.3706632,N,10550.5869077,E,0.78,143.18,130822,0.0,E,A*35
$GPGGA,031418.00,2100.3706632,N,10550.5869077,E,3,06,1.0,-27.141,M,0.000,M,0.0,*61
$GPGSA,A,3,02,05,06,12,19,20,,,,,,,4.0,1.4,3.8,1*2D
$GPGSV,2,1,06,02,40,329,00,05,49,246,00,06,33,046,00,12,43,271,00,1*63
$GPGSV,2,2,06,19,41,115,00,20,69,324,00,,,,,,,,,1*62
$GPRMC,031419.00,A,2100.3706530,N,10550.5869225,E,1.79,143.18,130822,0.0,E,A*30
$GPGGA,031419.00,2100.3706530,N,10550.5869225,E,3,06,1.0,-27.130,M,0.000,M,0.0,*62
$GPGSA,A,3,02,05,06,12,19,20,,,,,,,4.0,1.4,3.8,1*2D
$GPGSV,2,1,06,02,40,329,00,05,49,246,00,06,33,046,00,12,43,271,00,1*63
$GPGSV,2,2,06,19,41,115,00,20,69,325,00,,,,,,,,,1*63
$GPRMC,031420.00,A,2100.3705373,N,10550.5868315,E,1.04,143.18,130822,0.0,E,A*31
$GPGGA,031420.00,2100.3705373,N,10550.5868315,E,3,06,1.0,-26.851,M,0.000,M,0.0,*66
$GPGSA,A,3,02,05,06,12,19,20,,,,,,,4.0,1.4,3.8,1*2D
$GPGSV,2,1,06,02,40,329,00,05,50,246,00,06,33,046,00,12,43,271,00,1*6B
$GPGSV,2,2,06,19,41,115,00,20,69,325,00,,,,,,,,,1*63
$GPRMC,031421.00,A,2100.3704590,N,10550.5867439,E,0.87,143.18,130822,0.0,E,A*36
$GPGGA,031421.00,2100.3704590,N,10550.5867439,E,3,06,1.0,-26.750,M,0.000,M,0.0,*65
$GPGSA,A,3,02,05,06,12,19,20,,,,,,,4.0,1.4,3.8,1*2D
$GPGSV,2,1,06,02,40,329,00,05,50,246,00,06,33,046,00,12,43,271,00,1*6B
$GPGSV,2,2,06,19,41,115,00,20,69,325,00,,,,,,,,,1*63
$GPRMC,031422.00,A,2100.3703949,N,10550.5866367,E,0.58,143.18,130822,0.0,E,A*35
$GPGGA,031422.00,2100.3703949,N,10550.5866367,E,3,06,1.0,-26.238,M,0.000,M,0.0,*6F
$GPGSA,A,3,02,05,06,12,19,20,,,,,,,4.0,1.4,3.8,1*2D
$GPGSV,2,1,06,02,40,329,00,05,50,246,00,06,33,046,00,12,43,271,00,1*6B
$GPGSV,2,2,06,19,41,115,00,20,69,325,00,,,,,,,,,1*63
$GPRMC,031423.00,A,2100.3702871,N,10550.5865448,E,1.29,143.18,130822,0.0,E,A*31
$GPGGA,031423.00,2100.3702871,N,10550.5865448,E,3,06,1.0,-26.183,M,0.000,M,0.0,*6F
$GPGSA,A,3,02,05,06,12,19,20,,,,,,,4.0,1.4,3.8,1*2D
$GPGSV,2,1,06,02,40,329,00,05,50,246,00,06,33,046,00,12,43,271,00,1*6B
$GPGSV,2,2,06,19,41,115,00,20,69,325,00,,,,,,,,,1*63
$GPRMC,031424.00,A,2100.3702339,N,10550.5865293,E,0.96,143.18,130822,0.0,E,A*34
$GPGGA,031424.00,2100.3702339,N,10550.5865293,E,3,06,1.0,-26.176,M,0.000,M,0.0,*65
$GPGSA,A,3,02,05,06,12,19,20,,,,,,,4.0,1.4,3.8,1*2D
$GPGSV,2,1,06,02,40,329,00,05,50,246,00,06,33,046,00,12,43,271,00,1*6B
$GPGSV,2,2,06,19,41,115,00,20,69,325,00,,,,,,,,,1*63
$GPRMC,031425.00,A,2100.3702050,N,10550.5864456,E,1.40,143.18,130822,0.0,E,A*3D
$GPGGA,031425.00,2100.3702050,N,10550.5864456,E,3,06,1.0,-25.864,M,0.000,M,0.0,*6F
$GPGSA,A,3,02,05,06,12,19,20,,,,,,,4.0,1.4,3.8,1*2D
$GPGSV,2,1,06,02,40,329,00,05,50,246,00,06,33,046,00,12,43,271,00,1*6B
$GPGSV,2,2,06,19,41,115,00,20,69,325,00,,,,,,,,,1*63
$GPRMC,031426.00,A,2100.3702572,N,10550.5864349,E,0.84,143.18,130822,0.0,E,A*3B
$GPGGA,031426.00,2100.3702572,N,10550.5864349,E,3,06,1.0,-25.365,M,0.000,M,0.0,*6A
$GPGSA,A,3,02,05,06,12,19,20,,,,,,,4.0,1.4,3.8,1*2D
$GPGSV,2,1,06,02,40,329,00,05,50,246,00,06,33,046,00,12,43,271,00,1*6B
$GPGSV,2,2,06,19,41,115,00,20,69,325,00,,,,,,,,,1*63
$GPRMC,031427.00,A,2100.3703212,N,10550.5864060,E,5.47,340.55,130822,0.0,E,A*30
$GPGGA,031427.00,2100.3703212,N,10550.5864060,E,3,06,1.0,-25.099,M,0.000,M,0.0,*63
$GPGSA,A,3,02,05,06,12,19,20,,,,,,,4.0,1.4,3.8,1*2D
$GPGSV,2,1,06,02,40,329,00,05,50,246,00,06,33,046,00,12,43,271,00,1*6B
$GPGSV,2,2,06,19,41,115,00,20,69,325,00,,,,,,,,,1*63
$GPRMC,031428.00,A,2100.3703903,N,10550.5864218,E,2.59,10.57,130822,0.0,E,A*05
$GPGGA,031428.00,2100.3703903,N,10550.5864218,E,3,06,1.0,-24.776,M,0.000,M,0.0,*6D
$GPGSA,A,3,02,05,06,12,19,20,,,,,,,4.0,1.4,3.8,1*2D
$GPGSV,2,1,06,02,40,329,00,05,50,246,00,06,33,046,00,12,43,271,00,1*6B
$GPGSV,2,2,06,19,41,115,00,20,69,325,00,,,,,,,,,1*63
$GPRMC,031429.00,A,2100.3704385,N,10550.5864189,E,0.88,10.57,130822,0.0,E,A*02
$GPGGA,031429.00,2100.3704385,N,10550.5864189,E,3,06,1.0,-24.111,M,0.000,M,0.0,*63
$GPGSA,A,3,02,05,06,12,19,20,,,,,,,4.0,1.4,3.8,1*2D
$GPGSV,2,1,06,02,40,329,00,05,50,246,00,06,33,046,00,12,43,271,00,1*6B
$GPGSV,2,2,06,19,41,115,00,20,69,325,00,,,,,,,,,1*63
$GPRMC,031430.00,A,2100.3705065,N,10550.5863959,E,3.83,356.67,130822,0.0,E,A*3E
$GPGGA,031430.00,2100.3705065,N,10550.5863959,E,3,06,1.0,-23.658,M,0.000,M,0.0,*68
$GPGSA,A,3,02,05,06,12,19,20,,,,,,,4.0,1.4,3.8,1*2D
$GPGSV,2,1,06,02,40,329,00,05,50,246,00,06,33,046,00,12,43,271,00,1*6B
$GPGSV,2,2,06,19,41,115,00,20,69,325,00,,,,,,,,,1*63
$GPRMC,031431.00,A,2100.3705344,N,10550.5864039,E,2.01,33.94,130822,0.0,E,A*00
$GPGGA,031431.00,2100.3705344,N,10550.5864039,E,3,06,1.0,-23.370,M,0.000,M,0.0,*6E
$GPGSA,A,3,02,05,06,12,19,20,,,,,,,4.0,1.4,3.8,1*2D
$GPGSV,2,1,06,02,40,329,00,05,50,246,00,06,33,046,00,12,43,271,00,1*6B
$GPGSV,2,2,06,19,41,115,00,20,69,325,00,,,,,,,,,1*63
$GPRMC,031432.00,A,2100.3705635,N,10550.5864066,E,1.22,33.94,130822,0.0,E,A*08
$GPGGA,031432.00,2100.3705635,N,10550.5864066,E,3,06,1.0,-23.160,M,0.000,M,0.0,*67
$GPGSA,A,3,02,05,06,12,19,20,,,,,,,4.0,1.4,3.8,1*2D
$GPGSV,2,1,06,02,40,329,00,05,50,246,00,06,33,046,00,12,43,271,00,1*6B
$GPGSV,2,2,06,19,41,115,00,20,69,325,00,,,,,,,,,1*63
$GPRMC,031433.00,A,2100.3705688,N,10550.5864015,E,0.97,33.94,130822,0.0,E,A*04
$GPGGA,031433.00,2100.3705688,N,10550.5864015,E,3,06,1.0,-23.139,M,0.000,M,0.0,*68
$GPGSA,A,3,02,05,06,12,19,20,,,,,,,4.0,1.4,3.8,1*2D
$GPGSV,2,1,06,02,40,329,00,05,50,246,00,06,33,046,00,12,43,271,00,1*6B
$GPGSV,2,2,06,19,41,115,00,20,69,325,00,,,,,,,,,1*63
$GPRMC,031434.00,A,2100.3705548,N,10550.5863964,E,1.14,33.94,130822,0.0,E,A*0E
$GPGGA,031434.00,2100.3705548,N,10550.5863964,E,3,06,1.0,-22.898,M,0.000,M,0.0,*6B
$GPGSA,A,3,02,05,06,12,19,20,,,,,,,4.0,1.4,3.8,1*2D
$GPGSV,2,1,06,02,40,329,00,05,50,246,00,06,33,046,00,12,43,271,00,1*6B
$GPGSV,2,2,06,19,41,115,00,20,69,325,00,,,,,,,,,1*63
$GPRMC,031435.00,A,2100.3705192,N,10550.5863700,E,1.84,33.94,130822,0.0,E,A*09
$GPGGA,031435.00,2100.3705192,N,10550.5863700,E,3,06,1.0,-22.781,M,0.000,M,0.0,*62
$GPGSA,A,3,02,05,06,12,19,20,,,,,,,4.0,1.4,3.8,1*2D
$GPGSV,2,1,06,02,40,329,00,05,50,246,00,06,33,046,00,12,43,271,00,1*6B
$GPGSV,2,2,06,19,41,115,00,20,69,325,00,,,,,,,,,1*63
$GPRMC,031436.00,A,2100.3704893,N,10550.5863463,E,1.02,33.94,130822,0.0,E,A*0B
$GPGGA,031436.00,2100.3704893,N,10550.5863463,E,3,06,1.0,-22.447,M,0.000,M,0.0,*67
$GPGSA,A,3,02,05,06,12,19,20,,,,,,,4.0,1.4,3.8,1*2D
$GPGSV,2,1,06,02,40,329,00,05,50,246,00,06,33,046,00,12,43,271,00,1*6B
$GPGSV,2,2,06,19,41,115,00,20,69,325,00,,,,,,,,,1*63
$GPRMC,031437.00,A,2100.3704670,N,10550.5863437,E,1.40,33.94,130822,0.0,E,A*0E
$GPGGA,031437.00,2100.3704670,N,10550.5863437,E,3,06,1.0,-22.306,M,0.000,M,0.0,*66
$GPGSA,A,3,02,05,06,12,19,20,,,,,,,4.0,1.4,3.8,1*2D
$GPGSV,2,1,06,02,40,329,00,05,50,246,00,06,33,046,00,12,43,271,00,1*6B
$GPGSV,2,2,06,19,41,115,00,20,69,325,00,,,,,,,,,1*63
$GPRMC,031438.00,A,2100.3704363,N,10550.5863508,E,2.66,63.57,130822,0.0,E,A*06
$GPGGA,031438.00,2100.3704363,N,10550.5863508,E,3,06,1.0,-22.055,M,0.000,M,0.0,*66
$GPGSA,A,3,02,05,06,12,19,20,,,,,,,4.0,1.4,3.8,1*2D
$GPGSV,2,1,06,02,40,329,00,05,50,246,00,06,33,046,00,12,43,271,00,1*6B
$GPGSV,2,2,06,19,41,115,00,20,69,325,00,,,,,,,,,1*63
$GPRMC,031439.00,A,2100.3704276,N,10550.5863489,E,0.40,63.57,130822,0.0,E,A*0C
$GPGGA,031439.00,2100.3704276,N,10550.5863489,E,3,06,1.0,-21.969,M,0.000,M,0.0,*6F
$GPGSA,A,3,02,05,06,12,19,20,,,,,,,4.0,1.4,3.8,1*2D
$GPGSV,2,1,06,02,40,329,00,05,50,246,00,06,33,046,00,12,43,271,00,1*6B
$GPGSV,2,2,06,19,41,115,00,20,69,325,00,,,,,,,,,1*63
$GPRMC,031440.00,A,2100.3704288,N,10550.5863423,E,1.97,201.26,130822,0.0,E,A*38
$GPGGA,031440.00,2100.3704288,N,10550.5863423,E,3,06,1.0,-21.689,M,0.000,M,0.0,*61
$GPGSA,A,3,02,05,06,12,19,20,,,,,,,4.0,1.4,3.8,1*2D
$GPGSV,2,1,06,02,40,329,00,05,50,246,00,06,33,046,00,12,43,271,00,1*6B
$GPGSV,2,2,06,19,41,115,00,20,69,325,00,,,,,,,,,1*63
$GPRMC,031441.00,A,2100.3704102,N,10550.5863300,E,2.04,286.24,130822,0.0,E,A*3A
$GPGGA,031441.00,2100.3704102,N,10550.5863300,E,3,06,1.0,-21.557,M,0.000,M,0.0,*67
$GPGSA,A,3,02,05,06,12,19,20,,,,,,,4.0,1.4,3.8,1*2D
$GPGSV,2,1,06,02,40,329,00,05,50,246,00,06,33,046,00,12,43,271,00,1*6B
$GPGSV,2,2,06,19,41,115,00,20,69,325,00,,,,,,,,,1*63
$GPRMC,031442.00,A,2100.3703807,N,10550.5863152,E,1.59,286.24,130822,0.0,E,A*3C
$GPGGA,031442.00,2100.3703807,N,10550.5863152,E,3,06,1.0,-21.106,M,0.000,M,0.0,*6A
$GPGSA,A,3,02,05,06,12,19,20,,,,,,,4.0,1.4,3.8,1*2D
$GPGSV,2,1,06,02,40,329,00,05,50,246,00,06,33,046,00,12,43,271,00,1*6B
$GPGSV,2,2,06,19,41,115,00,20,69,325,00,,,,,,,,,1*63
$GPRMC,031443.00,A,2100.3703903,N,10550.5863007,E,1.43,286.24,130822,0.0,E,A*32
$GPGGA,031443.00,2100.3703903,N,10550.5863007,E,3,06,1.0,-20.771,M,0.000,M,0.0,*68
$GPGSA,A,3,02,05,06,12,19,20,,,,,,,4.0,1.4,3.8,1*2D
$GPGSV,2,1,06,02,40,329,00,05,50,246,00,06,33,046,00,12,43,271,00,1*6B
$GPGSV,2,2,06,19,41,115,00,20,69,325,00,,,,,,,,,1*63
$GPRMC,031444.00,A,2100.3703928,N,10550.5862975,E,1.69,286.24,130822,0.0,E,A*39
$GPGGA,031444.00,2100.3703928,N,10550.5862975,E,3,06,1.0,-20.370,M,0.000,M,0.0,*6E
$GPGSA,A,3,02,05,06,12,19,20,,,,,,,4.0,1.4,3.8,1*2D
$GPGSV,2,1,06,02,40,329,00,05,50,246,00,06,33,046,00,12,43,271,00,1*6B
$GPGSV,2,2,06,19,41,115,00,20,69,325,00,,,,,,,,,1*63
$GPRMC,031445.00,A,2100.3704082,N,10550.5862775,E,2.71,205.09,130822,0.0,E,A*36
$GPGGA,031445.00,2100.3704082,N,10550.5862775,E,3,06,1.0,-20.072,M,0.000,M,0.0,*6E
$GPGSA,A,3,02,05,06,12,19,20,,,,,,,4.0,1.4,3.8,1*2D
$GPGSV,2,1,06,02,40,329,00,05,50,246,00,06,33,046,00,12,43,271,00,1*6B
$GPGSV,2,2,06,19,41,115,00,20,69,325,00,,,,,,,,,1*63
$GPRMC,031446.00,A,2100.3704147,N,10550.5862651,E,5.67,322.32,130822,0.0,E,A*36
$GPGGA,031446.00,2100.3704147,N,10550.5862651,E,3,06,1.0,-19.845,M,0.000,M,0.0,*64
$GPGSA,A,3,02,05,06,12,19,20,,,,,,,4.0,1.4,3.8,1*2D
$GPGSV,2,1,06,02,40,329,00,05,50,246,00,06,33,046,00,12,43,271,00,1*6B
$GPGSV,2,2,06,19,41,115,00,20,69,325,00,,,,,,,,,1*63
$GPRMC,031447.00,A,2100.3704413,N,10550.5862589,E,0.27,322.32,130822,0.0,E,A*34
$GPGGA,031447.00,2100.3704413,N,10550.5862589,E,3,06,1.0,-19.483,M,0.000,M,0.0,*61
$GPGSA,A,3,02,05,06,12,19,20,,,,,,,4.0,1.4,3.8,1*2D
$GPGSV,2,1,06,02,40,329,00,05,50,246,00,06,33,046,00,12,43,271,00,1*6B
$GPGSV,2,2,06,19,41,115,00,20,69,325,00,,,,,,,,,1*63
$GPRMC,031448.00,A,2100.3704637,N,10550.5862697,E,0.74,322.32,130822,0.0,E,A*35
$GPGGA,031448.00,2100.3704637,N,10550.5862697,E,3,06,1.0,-19.076,M,0.000,M,0.0,*68
$GPGSA,A,3,02,05,06,12,19,20,,,,,,,4.0,1.4,3.8,1*2D
$GPGSV,2,1,06,02,40,329,00,05,50,246,00,06,33,046,00,12,43,271,00,1*6B
$GPGSV,2,2,06,19,41,115,00,20,69,325,00,,,,,,,,,1*63
$GPRMC,031449.00,A,2100.3704770,N,10550.5862768,E,2.84,180.00,130822,0.0,E,A*31
$GPGGA,031449.00,2100.3704770,N,10550.5862768,E,3,06,1.0,-18.813,M,0.000,M,0.0,*60
$GPGSA,A,3,02,05,06,12,19,20,,,,,,,4.0,1.4,3.8,1*2D
$GPGSV,2,1,06,02,40,329,00,05,50,246,00,06,33,046,00,12,43,271,00,1*6B
$GPGSV,2,2,06,19,41,115,00,20,69,325,00,,,,,,,,,1*63
$GPRMC,031450.00,A,2100.3704569,N,10550.5862928,E,0.83,180.00,130822,0.0,E,A*3C
$GPGGA,031450.00,2100.3704569,N,10550.5862928,E,3,06,1.0,-18.611,M,0.000,M,0.0,*64
$GPGSA,A,3,02,05,06,12,19,20,,,,,,,4.0,1.4,3.8,1*2D
$GPGSV,2,1,06,02,40,329,00,05,50,246,00,06,33,046,00,12,43,271,00,1*6B
$GPGSV,2,2,06,19,41,115,00,20,69,325,00,,,,,,,,,1*63
$GPRMC,031451.00,A,2100.3704490,N,10550.5863297,E,2.95,322.22,130822,0.0,E,A*3B
$GPGGA,031451.00,2100.3704490,N,10550.5863297,E,3,06,1.0,-18.356,M,0.000,M,0.0,*6A
$GPGSA,A,3,02,05,06,12,19,20,,,,,,,4.0,1.4,3.8,1*2D
$GPGSV,2,1,06,02,40,329,00,05,50,246,00,06,33,046,00,12,43,271,00,1*6B
$GPGSV,2,2,06,19,41,115,00,20,69,325,00,,,,,,,,,1*63
$GPRMC,031452.00,A,2100.3704570,N,10550.5863527,E,4.10,260.85,130822,0.0,E,A*3A
$GPGGA,031452.00,2100.3704570,N,10550.5863527,E,3,06,1.0,-18.276,M,0.000,M,0.0,*69
$GPGSA,A,3,02,05,06,12,19,20,,,,,,,4.0,1.4,3.8,1*2D
$GPGSV,2,1,06,02,40,329,00,05,50,246,00,06,33,046,00,12,43,271,00,1*6B
$GPGSV,2,2,06,19,41,115,00,20,69,325,00,,,,,,,,,1*63
$GPRMC,031453.00,A,2100.3704470,N,10550.5863789,E,1.91,260.85,130822,0.0,E,A*30
$GPGGA,031453.00,2100.3704470,N,10550.5863789,E,3,06,1.0,-18.251,M,0.000,M,0.0,*6A
$GPGSA,A,3,02,05,06,12,19,20,,,,,,,4.0,1.4,3.8,1*2D
$GPGSV,2,1,06,02,40,329,00,05,50,246,00,06,33,046,00,12,43,271,00,1*6B
$GPGSV,2,2,06,19,41,115,00,20,69,325,00,,,,,,,,,1*63
$GPRMC,031454.00,A,2100.3704058,N,10550.5863950,E,0.86,260.85,130822,0.0,E,A*34
$GPGGA,031454.00,2100.3704058,N,10550.5863950,E,3,06,1.0,-18.274,M,0.000,M,0.0,*6E
$GPGSA,A,3,02,05,06,12,19,20,,,,,,,4.0,1.4,3.8,1*2D
$GPGSV,2,1,06,02,40,329,00,05,50,246,00,06,33,046,00,12,43,270,00,1*6A
$GPGSV,2,2,06,19,41,115,00,20,69,325,00,,,,,,,,,1*63
$GPRMC,031455.00,A,2100.3704242,N,10550.5863958,E,2.09,330.57,130822,0.0,E,A*3A
$GPGGA,031455.00,2100.3704242,N,10550.5863958,E,3,06,1.0,-18.375,M,0.000,M,0.0,*6E
$GPGSA,A,3,02,05,06,12,19,20,,,,,,,4.0,1.4,3.8,1*2D
$GPGSV,2,1,06,02,40,329,00,05,50,246,00,06,33,046,00,12,43,270,00,1*6A
$GPGSV,2,2,06,19,41,115,00,20,69,325,00,,,,,,,,,1*63
$GPRMC,031456.00,A,2100.3704470,N,10550.5864141,E,3.30,149.49,130822,0.0,E,A*31
$GPGGA,031456.00,2100.3704470,N,10550.5864141,E,3,06,1.0,-18.574,M,0.000,M,0.0,*6A
$GPGSA,A,3,02,05,06,12,19,20,,,,,,,4.0,1.4,3.8,1*2D
$GPGSV,2,1,06,02,40,329,00,05,50,246,00,06,33,046,00,12,43,270,00,1*6A
$GPGSV,2,2,06,19,41,115,00,20,69,325,00,,,,,,,,,1*63
